[
  {
    "Pcode": 200,
    "Locality": "AUSTRALIAN NATIONAL UNIVERSITY",
    "State": "ACT",
    "Comments": "PO BOXES",
    "Category": "Post Office Boxes",
    "Longitude": null,
    "Latitude": null
  },
  {
    "Pcode": 800,
    "Locality": "DARWIN",
    "State": "NT",
    "Comments": "",
    "Category": "Delivery Area",
    "Longitude": 130.8434,
    "Latitude": -12.4633
  },
  {
    "Pcode": 801,
    "Locality": "DARWIN",
    "State": "NT",
    "Comments": "GPO BOXES",
    "Category": "Post Office Boxes",
    "Longitude": null,
    "Latitude": null
  },
  {
    "Pcode": 803,
    "Locality": "WAGAIT BEACH",
    "State": "NT",
    "Comments": "PO BOXES",
    "Category": "Post Office Boxes",
    "Longitude": null,
    "Latitude": null
  },
  {
    "Pcode": 804,
    "Locality": "PARAP",
    "State": "NT",
    "Comments": "PO BOXES",
    "Category": "Post Office Boxes",
    "Longitude": null,
    "Latitude": null
  },
  {
    "Pcode": 810,
    "Locality": "ALAWA",
    "State": "NT",
    "Comments": "",
    "Category": "Delivery Area",
    "Longitude": 130.8738,
    "Latitude": -12.3798
  },
  {
    "Pcode": 810,
    "Locality": "BRINKIN",
    "State": "NT",
    "Comments": "",
    "Category": "Delivery Area",
    "Longitude": 130.8659,
    "Latitude": -12.3656
  },
  {
    "Pcode": 810,
    "Locality": "CASUARINA",
    "State": "NT",
    "Comments": "",
    "Category": "Delivery Area",
    "Longitude": 130.8813,
    "Latitude": -12.3742
  },
  {
    "Pcode": 810,
    "Locality": "COCONUT GROVE",
    "State": "NT",
    "Comments": "",
    "Category": "Delivery Area",
    "Longitude": 130.8491,
    "Latitude": -12.396
  },
  {
    "Pcode": 810,
    "Locality": "JINGILI",
    "State": "NT",
    "Comments": "",
    "Category": "Delivery Area",
    "Longitude": 130.872,
    "Latitude": -12.3892
  },
  {
    "Pcode": 810,
    "Locality": "LEE POINT",
    "State": "NT",
    "Comments": "",
    "Category": "Delivery Area",
    "Longitude": 130.888,
    "Latitude": -12.3363
  },
  {
    "Pcode": 810,
    "Locality": "LYONS",
    "State": "NT",
    "Comments": "",
    "Category": "Delivery Area",
    "Longitude": 130.889,
    "Latitude": -12.3585
  },
  {
    "Pcode": 810,
    "Locality": "MILLNER",
    "State": "NT",
    "Comments": "",
    "Category": "Delivery Area",
    "Longitude": 130.8627,
    "Latitude": -12.3916
  },
  {
    "Pcode": 810,
    "Locality": "MOIL",
    "State": "NT",
    "Comments": "",
    "Category": "Delivery Area",
    "Longitude": 130.8816,
    "Latitude": -12.3894
  },
  {
    "Pcode": 810,
    "Locality": "MUIRHEAD",
    "State": "NT",
    "Comments": "",
    "Category": "Delivery Area",
    "Longitude": 130.8955,
    "Latitude": -12.3583
  },
  {
    "Pcode": 810,
    "Locality": "NAKARA",
    "State": "NT",
    "Comments": "",
    "Category": "Delivery Area",
    "Longitude": 130.8775,
    "Latitude": -12.3706
  },
  {
    "Pcode": 810,
    "Locality": "NIGHTCLIFF",
    "State": "NT",
    "Comments": "",
    "Category": "Delivery Area",
    "Longitude": 130.8408,
    "Latitude": -12.3902
  },
  {
    "Pcode": 810,
    "Locality": "RAPID CREEK",
    "State": "NT",
    "Comments": "",
    "Category": "Delivery Area",
    "Longitude": 130.8482,
    "Latitude": -12.3718
  },
  {
    "Pcode": 810,
    "Locality": "TIWI",
    "State": "NT",
    "Comments": "",
    "Category": "Delivery Area",
    "Longitude": 130.8747,
    "Latitude": -12.3574
  },
  {
    "Pcode": 810,
    "Locality": "WAGAMAN",
    "State": "NT",
    "Comments": "",
    "Category": "Delivery Area",
    "Longitude": 130.8847,
    "Latitude": -12.3811
  },
  {
    "Pcode": 810,
    "Locality": "WANGURI",
    "State": "NT",
    "Comments": "",
    "Category": "Delivery Area",
    "Longitude": 130.8875,
    "Latitude": -12.3715
  },
  {
    "Pcode": 811,
    "Locality": "CASUARINA",
    "State": "NT",
    "Comments": "PO BOXES",
    "Category": "Post Office Boxes",
    "Longitude": null,
    "Latitude": null
  },
  {
    "Pcode": 812,
    "Locality": "ANULA",
    "State": "NT",
    "Comments": "",
    "Category": "Delivery Area",
    "Longitude": 130.8905,
    "Latitude": -12.3902
  },
  {
    "Pcode": 812,
    "Locality": "BUFFALO CREEK",
    "State": "NT",
    "Comments": "",
    "Category": "Delivery Area",
    "Longitude": 130.9177,
    "Latitude": -12.3481
  },
  {
    "Pcode": 812,
    "Locality": "HOLMES",
    "State": "NT",
    "Comments": "",
    "Category": "Delivery Area",
    "Longitude": 130.9239,
    "Latitude": -12.3876
  },
  {
    "Pcode": 812,
    "Locality": "KARAMA",
    "State": "NT",
    "Comments": "",
    "Category": "Delivery Area",
    "Longitude": 130.9155,
    "Latitude": -12.4003
  },
  {
    "Pcode": 812,
    "Locality": "LEANYER",
    "State": "NT",
    "Comments": "",
    "Category": "Delivery Area",
    "Longitude": 130.9036,
    "Latitude": -12.3677
  },
  {
    "Pcode": 812,
    "Locality": "MALAK",
    "State": "NT",
    "Comments": "",
    "Category": "Delivery Area",
    "Longitude": 130.9039,
    "Latitude": -12.3927
  },
  {
    "Pcode": 812,
    "Locality": "MARRARA",
    "State": "NT",
    "Comments": "",
    "Category": "Delivery Area",
    "Longitude": 130.8953,
    "Latitude": -12.3989
  },
  {
    "Pcode": 812,
    "Locality": "WULAGI",
    "State": "NT",
    "Comments": "",
    "Category": "Delivery Area",
    "Longitude": 130.8951,
    "Latitude": -12.383
  },
  {
    "Pcode": 813,
    "Locality": "KARAMA",
    "State": "NT",
    "Comments": "PO BOXES",
    "Category": "Post Office Boxes",
    "Longitude": null,
    "Latitude": null
  },
  {
    "Pcode": 814,
    "Locality": "NIGHTCLIFF",
    "State": "NT",
    "Comments": "PO BOXES",
    "Category": "Post Office Boxes",
    "Longitude": null,
    "Latitude": null
  },
  {
    "Pcode": 815,
    "Locality": "CHARLES DARWIN UNIVERSITY",
    "State": "NT",
    "Comments": "PO BOXES",
    "Category": "Post Office Boxes",
    "Longitude": null,
    "Latitude": null
  },
  {
    "Pcode": 820,
    "Locality": "BAYVIEW",
    "State": "NT",
    "Comments": "",
    "Category": "Delivery Area",
    "Longitude": 130.8569,
    "Latitude": -12.4392
  },
  {
    "Pcode": 820,
    "Locality": "CHARLES DARWIN",
    "State": "NT",
    "Comments": "",
    "Category": "Delivery Area",
    "Longitude": null,
    "Latitude": null
  },
  {
    "Pcode": 820,
    "Locality": "COONAWARRA",
    "State": "NT",
    "Comments": "",
    "Category": "Delivery Area",
    "Longitude": 130.9072,
    "Latitude": -12.434
  },
  {
    "Pcode": 820,
    "Locality": "DARWIN DC",
    "State": "NT",
    "Comments": "PO BOXES",
    "Category": "Delivery Area",
    "Longitude": null,
    "Latitude": null
  },
  {
    "Pcode": 820,
    "Locality": "EAST POINT",
    "State": "NT",
    "Comments": "",
    "Category": "Delivery Area",
    "Longitude": 130.8255,
    "Latitude": -12.4083
  },
  {
    "Pcode": 820,
    "Locality": "EATON",
    "State": "NT",
    "Comments": "",
    "Category": "Delivery Area",
    "Longitude": 130.8822,
    "Latitude": -12.4107
  },
  {
    "Pcode": 820,
    "Locality": "FANNIE BAY",
    "State": "NT",
    "Comments": "",
    "Category": "Delivery Area",
    "Longitude": 130.8366,
    "Latitude": -12.4275
  },
  {
    "Pcode": 820,
    "Locality": "LARRAKEYAH",
    "State": "NT",
    "Comments": "",
    "Category": "Delivery Area",
    "Longitude": 130.825,
    "Latitude": -12.4553
  },
  {
    "Pcode": 820,
    "Locality": "LUDMILLA",
    "State": "NT",
    "Comments": "",
    "Category": "Delivery Area",
    "Longitude": 130.8467,
    "Latitude": -12.4117
  },
  {
    "Pcode": 820,
    "Locality": "PARAP",
    "State": "NT",
    "Comments": "",
    "Category": "Delivery Area",
    "Longitude": 130.8442,
    "Latitude": -12.434
  },
  {
    "Pcode": 820,
    "Locality": "STUART PARK",
    "State": "NT",
    "Comments": "",
    "Category": "Delivery Area",
    "Longitude": 130.8481,
    "Latitude": -12.4463
  },
  {
    "Pcode": 820,
    "Locality": "THE GARDENS",
    "State": "NT",
    "Comments": "",
    "Category": "Delivery Area",
    "Longitude": 130.8316,
    "Latitude": -12.4463
  },
  {
    "Pcode": 820,
    "Locality": "THE NARROWS",
    "State": "NT",
    "Comments": "",
    "Category": "Delivery Area",
    "Longitude": 130.8595,
    "Latitude": -12.4271
  },
  {
    "Pcode": 820,
    "Locality": "WINNELLIE",
    "State": "NT",
    "Comments": "",
    "Category": "Delivery Area",
    "Longitude": 130.8834,
    "Latitude": -12.4295
  },
  {
    "Pcode": 820,
    "Locality": "WOOLNER",
    "State": "NT",
    "Comments": "",
    "Category": "Delivery Area",
    "Longitude": 130.8505,
    "Latitude": -12.4349
  },
  {
    "Pcode": 821,
    "Locality": "WINNELLIE",
    "State": "NT",
    "Comments": "PO BOXES",
    "Category": "Post Office Boxes",
    "Longitude": null,
    "Latitude": null
  },
  {
    "Pcode": 822,
    "Locality": "ACACIA HILLS",
    "State": "NT",
    "Comments": "",
    "Category": "Delivery Area",
    "Longitude": 131.1419,
    "Latitude": -12.7703
  },
  {
    "Pcode": 822,
    "Locality": "ANGURUGU",
    "State": "NT",
    "Comments": "",
    "Category": "Delivery Area",
    "Longitude": 136.4613,
    "Latitude": -13.9802
  },
  {
    "Pcode": 822,
    "Locality": "ANINDILYAKWA",
    "State": "NT",
    "Comments": "",
    "Category": "Delivery Area",
    "Longitude": 136.5593,
    "Latitude": -13.9514
  },
  {
    "Pcode": 822,
    "Locality": "ANNIE RIVER",
    "State": "NT",
    "Comments": "",
    "Category": "Delivery Area",
    "Longitude": null,
    "Latitude": null
  },
  {
    "Pcode": 822,
    "Locality": "BATHURST ISLAND",
    "State": "NT",
    "Comments": "",
    "Category": "Delivery Area",
    "Longitude": null,
    "Latitude": null
  },
  {
    "Pcode": 822,
    "Locality": "BEES CREEK",
    "State": "NT",
    "Comments": "",
    "Category": "Delivery Area",
    "Longitude": 131.055,
    "Latitude": -12.5727
  },
  {
    "Pcode": 822,
    "Locality": "BELYUEN",
    "State": "NT",
    "Comments": "",
    "Category": "Delivery Area",
    "Longitude": 130.6831,
    "Latitude": -12.5381
  },
  {
    "Pcode": 822,
    "Locality": "BLACK JUNGLE",
    "State": "NT",
    "Comments": "",
    "Category": "Delivery Area",
    "Longitude": 131.2104,
    "Latitude": -12.5213
  },
  {
    "Pcode": 822,
    "Locality": "BLACKMORE",
    "State": "NT",
    "Comments": "",
    "Category": "Delivery Area",
    "Longitude": 130.9212,
    "Latitude": -12.6955
  },
  {
    "Pcode": 822,
    "Locality": "BURRUNDIE",
    "State": "NT",
    "Comments": "",
    "Category": "Delivery Area",
    "Longitude": 131.861,
    "Latitude": -13.3898
  },
  {
    "Pcode": 822,
    "Locality": "BYNOE",
    "State": "NT",
    "Comments": "",
    "Category": "Delivery Area",
    "Longitude": 130.6359,
    "Latitude": -12.7912
  },
  {
    "Pcode": 822,
    "Locality": "BYNOE HARBOUR",
    "State": "NT",
    "Comments": "",
    "Category": "Delivery Area",
    "Longitude": 130.5335,
    "Latitude": -12.6362
  },
  {
    "Pcode": 822,
    "Locality": "CAMP CREEK",
    "State": "NT",
    "Comments": "",
    "Category": "Delivery Area",
    "Longitude": 130.9346,
    "Latitude": -13.1857
  },
  {
    "Pcode": 822,
    "Locality": "CHANNEL ISLAND",
    "State": "NT",
    "Comments": "",
    "Category": "Delivery Area",
    "Longitude": 130.8601,
    "Latitude": -12.5526
  },
  {
    "Pcode": 822,
    "Locality": "CHARLES DARWIN",
    "State": "NT",
    "Comments": "",
    "Category": "Delivery Area",
    "Longitude": 130.876,
    "Latitude": -12.451
  },
  {
    "Pcode": 822,
    "Locality": "CHARLOTTE",
    "State": "NT",
    "Comments": "",
    "Category": "Delivery Area",
    "Longitude": 130.7939,
    "Latitude": -12.8442
  },
  {
    "Pcode": 822,
    "Locality": "CLARAVALE",
    "State": "NT",
    "Comments": "",
    "Category": "Delivery Area",
    "Longitude": 131.656,
    "Latitude": -14.368
  },
  {
    "Pcode": 822,
    "Locality": "COBOURG",
    "State": "NT",
    "Comments": "",
    "Category": "Delivery Area",
    "Longitude": 132.1604,
    "Latitude": -11.3341
  },
  {
    "Pcode": 822,
    "Locality": "COLLETT CREEK",
    "State": "NT",
    "Comments": "",
    "Category": "Delivery Area",
    "Longitude": 130.9266,
    "Latitude": -12.9036
  },
  {
    "Pcode": 822,
    "Locality": "COOMALIE CREEK",
    "State": "NT",
    "Comments": "",
    "Category": "Delivery Area",
    "Longitude": 131.1759,
    "Latitude": -13.0013
  },
  {
    "Pcode": 822,
    "Locality": "COX PENINSULA",
    "State": "NT",
    "Comments": "",
    "Category": "Delivery Area",
    "Longitude": 130.7174,
    "Latitude": -12.5676
  },
  {
    "Pcode": 822,
    "Locality": "DALY RIVER",
    "State": "NT",
    "Comments": "",
    "Category": "Delivery Area",
    "Longitude": 130.5195,
    "Latitude": -13.4289
  },
  {
    "Pcode": 822,
    "Locality": "DARWIN RIVER DAM",
    "State": "NT",
    "Comments": "",
    "Category": "Delivery Area",
    "Longitude": 131.0445,
    "Latitude": -12.8959
  },
  {
    "Pcode": 822,
    "Locality": "DELISSAVILLE",
    "State": "NT",
    "Comments": "",
    "Category": "Delivery Area",
    "Longitude": null,
    "Latitude": null
  },
  {
    "Pcode": 822,
    "Locality": "DOUGLAS-DALY",
    "State": "NT",
    "Comments": "",
    "Category": "Delivery Area",
    "Longitude": 131.5256,
    "Latitude": -13.8592
  },
  {
    "Pcode": 822,
    "Locality": "EAST ARM",
    "State": "NT",
    "Comments": "",
    "Category": "Delivery Area",
    "Longitude": 130.9014,
    "Latitude": -12.4774
  },
  {
    "Pcode": 822,
    "Locality": "EAST ARNHEM",
    "State": "NT",
    "Comments": "",
    "Category": "Delivery Area",
    "Longitude": 135.7788,
    "Latitude": -12.6347
  },
  {
    "Pcode": 822,
    "Locality": "ELRUNDIE",
    "State": "NT",
    "Comments": "",
    "Category": "Delivery Area",
    "Longitude": 130.9409,
    "Latitude": -12.4891
  },
  {
    "Pcode": 822,
    "Locality": "EVA VALLEY",
    "State": "NT",
    "Comments": "",
    "Category": "Delivery Area",
    "Longitude": 131.0034,
    "Latitude": -13.1315
  },
  {
    "Pcode": 822,
    "Locality": "FINNISS VALLEY",
    "State": "NT",
    "Comments": "",
    "Category": "Delivery Area",
    "Longitude": 130.9517,
    "Latitude": -13.0644
  },
  {
    "Pcode": 822,
    "Locality": "FLEMING",
    "State": "NT",
    "Comments": "",
    "Category": "Delivery Area",
    "Longitude": 131.2967,
    "Latitude": -13.852
  },
  {
    "Pcode": 822,
    "Locality": "FLY CREEK",
    "State": "NT",
    "Comments": "",
    "Category": "Delivery Area",
    "Longitude": 131.0688,
    "Latitude": -12.7975
  },
  {
    "Pcode": 822,
    "Locality": "FREDS PASS",
    "State": "NT",
    "Comments": "",
    "Category": "Delivery Area",
    "Longitude": 131.0537,
    "Latitude": -12.541
  },
  {
    "Pcode": 822,
    "Locality": "GALIWINKU",
    "State": "NT",
    "Comments": "",
    "Category": "Delivery Area",
    "Longitude": 135.5865,
    "Latitude": -12.0061
  },
  {
    "Pcode": 822,
    "Locality": "GLYDE POINT",
    "State": "NT",
    "Comments": "",
    "Category": "Delivery Area",
    "Longitude": 131.0786,
    "Latitude": -12.1818
  },
  {
    "Pcode": 822,
    "Locality": "GOULBURN ISLAND",
    "State": "NT",
    "Comments": "CARE PO",
    "Category": "Delivery Area",
    "Longitude": null,
    "Latitude": null
  },
  {
    "Pcode": 822,
    "Locality": "GUNBALANYA",
    "State": "NT",
    "Comments": "",
    "Category": "Delivery Area",
    "Longitude": 133.0047,
    "Latitude": -12.3549
  },
  {
    "Pcode": 822,
    "Locality": "GUNN POINT",
    "State": "NT",
    "Comments": "",
    "Category": "Delivery Area",
    "Longitude": 131.0173,
    "Latitude": -12.1817
  },
  {
    "Pcode": 822,
    "Locality": "HIDDEN VALLEY",
    "State": "NT",
    "Comments": "",
    "Category": "Delivery Area",
    "Longitude": 130.9081,
    "Latitude": -12.4491
  },
  {
    "Pcode": 822,
    "Locality": "HOTHAM",
    "State": "NT",
    "Comments": "",
    "Category": "Delivery Area",
    "Longitude": 131.3928,
    "Latitude": -12.3842
  },
  {
    "Pcode": 822,
    "Locality": "HUGHES",
    "State": "NT",
    "Comments": "",
    "Category": "Delivery Area",
    "Longitude": 131.1008,
    "Latitude": -12.6867
  },
  {
    "Pcode": 822,
    "Locality": "KAKADU",
    "State": "NT",
    "Comments": "",
    "Category": "Delivery Area",
    "Longitude": 132.3516,
    "Latitude": -12.1732
  },
  {
    "Pcode": 822,
    "Locality": "KOOLPINYAH",
    "State": "NT",
    "Comments": "",
    "Category": "Delivery Area",
    "Longitude": 131.2164,
    "Latitude": -12.3709
  },
  {
    "Pcode": 822,
    "Locality": "LAKE BENNETT",
    "State": "NT",
    "Comments": "",
    "Category": "Delivery Area",
    "Longitude": 131.1989,
    "Latitude": -12.9267
  },
  {
    "Pcode": 822,
    "Locality": "LAMBELLS LAGOON",
    "State": "NT",
    "Comments": "",
    "Category": "Delivery Area",
    "Longitude": 131.2273,
    "Latitude": -12.5786
  },
  {
    "Pcode": 822,
    "Locality": "LITCHFIELD PARK",
    "State": "NT",
    "Comments": "",
    "Category": "Delivery Area",
    "Longitude": 130.8767,
    "Latitude": -13.2777
  },
  {
    "Pcode": 822,
    "Locality": "LIVINGSTONE",
    "State": "NT",
    "Comments": "",
    "Category": "Delivery Area",
    "Longitude": 131.0551,
    "Latitude": -12.7457
  },
  {
    "Pcode": 822,
    "Locality": "LLOYD CREEK",
    "State": "NT",
    "Comments": "",
    "Category": "Delivery Area",
    "Longitude": 131.1607,
    "Latitude": -12.6777
  },
  {
    "Pcode": 822,
    "Locality": "MANDORAH",
    "State": "NT",
    "Comments": "",
    "Category": "Delivery Area",
    "Longitude": 130.7606,
    "Latitude": -12.4423
  },
  {
    "Pcode": 822,
    "Locality": "MANINGRIDA",
    "State": "NT",
    "Comments": "",
    "Category": "Delivery Area",
    "Longitude": 134.2309,
    "Latitude": -12.0522
  },
  {
    "Pcode": 822,
    "Locality": "MAPURU",
    "State": "NT",
    "Comments": "",
    "Category": "Delivery Area",
    "Longitude": null,
    "Latitude": null
  },
  {
    "Pcode": 822,
    "Locality": "MARANUNGA",
    "State": "NT",
    "Comments": "",
    "Category": "Delivery Area",
    "Longitude": 130.71,
    "Latitude": -13.7096
  },
  {
    "Pcode": 822,
    "Locality": "MARGARET RIVER",
    "State": "NT",
    "Comments": "",
    "Category": "Delivery Area",
    "Longitude": 131.3659,
    "Latitude": -13.2341
  },
  {
    "Pcode": 822,
    "Locality": "MARRAKAI",
    "State": "NT",
    "Comments": "",
    "Category": "Delivery Area",
    "Longitude": 131.4466,
    "Latitude": -12.7217
  },
  {
    "Pcode": 822,
    "Locality": "MCMINNS LAGOON",
    "State": "NT",
    "Comments": "",
    "Category": "Delivery Area",
    "Longitude": 131.0671,
    "Latitude": -12.5391
  },
  {
    "Pcode": 822,
    "Locality": "MICKETT CREEK",
    "State": "NT",
    "Comments": "",
    "Category": "Delivery Area",
    "Longitude": 130.9523,
    "Latitude": -12.3651
  },
  {
    "Pcode": 822,
    "Locality": "MIDDLE POINT",
    "State": "NT",
    "Comments": "",
    "Category": "Delivery Area",
    "Longitude": 131.3267,
    "Latitude": -12.6043
  },
  {
    "Pcode": 822,
    "Locality": "MILIKAPITI",
    "State": "NT",
    "Comments": "",
    "Category": "Delivery Area",
    "Longitude": 130.6593,
    "Latitude": -11.417
  },
  {
    "Pcode": 822,
    "Locality": "MILINGIMBI",
    "State": "NT",
    "Comments": "",
    "Category": "Delivery Area",
    "Longitude": 134.9145,
    "Latitude": -12.1001
  },
  {
    "Pcode": 822,
    "Locality": "MILYAKBURRA",
    "State": "NT",
    "Comments": "",
    "Category": "Delivery Area",
    "Longitude": 136.2014,
    "Latitude": -13.7783
  },
  {
    "Pcode": 822,
    "Locality": "MINJILANG",
    "State": "NT",
    "Comments": "",
    "Category": "Delivery Area",
    "Longitude": 132.5724,
    "Latitude": -11.1449
  },
  {
    "Pcode": 822,
    "Locality": "MOUNT BUNDEY",
    "State": "NT",
    "Comments": "",
    "Category": "Delivery Area",
    "Longitude": 131.7503,
    "Latitude": -13.0347
  },
  {
    "Pcode": 822,
    "Locality": "MURRUMUJUK",
    "State": "NT",
    "Comments": "",
    "Category": "Delivery Area",
    "Longitude": 131.0427,
    "Latitude": -12.2716
  },
  {
    "Pcode": 822,
    "Locality": "NAUIYU",
    "State": "NT",
    "Comments": "",
    "Category": "Delivery Area",
    "Longitude": 130.7213,
    "Latitude": -13.7255
  },
  {
    "Pcode": 822,
    "Locality": "NEMARLUK",
    "State": "NT",
    "Comments": "",
    "Category": "Delivery Area",
    "Longitude": 130.1411,
    "Latitude": -14.0441
  },
  {
    "Pcode": 822,
    "Locality": "NGANMARRIYANGA",
    "State": "NT",
    "Comments": "",
    "Category": "Delivery Area",
    "Longitude": 129.8767,
    "Latitude": -14.3295
  },
  {
    "Pcode": 822,
    "Locality": "NUMBULWAR",
    "State": "NT",
    "Comments": "",
    "Category": "Delivery Area",
    "Longitude": 135.7421,
    "Latitude": -14.2722
  },
  {
    "Pcode": 822,
    "Locality": "NUMBURINDI",
    "State": "NT",
    "Comments": "",
    "Category": "Delivery Area",
    "Longitude": 135.8755,
    "Latitude": -13.8346
  },
  {
    "Pcode": 822,
    "Locality": "OENPELLI",
    "State": "NT",
    "Comments": "CARE PO",
    "Category": "Delivery Area",
    "Longitude": null,
    "Latitude": null
  },
  {
    "Pcode": 822,
    "Locality": "PEPPIMENARTI",
    "State": "NT",
    "Comments": "",
    "Category": "Delivery Area",
    "Longitude": 130.0792,
    "Latitude": -14.1478
  },
  {
    "Pcode": 822,
    "Locality": "PIRLANGIMPI",
    "State": "NT",
    "Comments": "",
    "Category": "Delivery Area",
    "Longitude": 130.4241,
    "Latitude": -11.3938
  },
  {
    "Pcode": 822,
    "Locality": "POINT STEPHENS",
    "State": "NT",
    "Comments": "",
    "Category": "Delivery Area",
    "Longitude": null,
    "Latitude": null
  },
  {
    "Pcode": 822,
    "Locality": "POINT STUART",
    "State": "NT",
    "Comments": "",
    "Category": "Delivery Area",
    "Longitude": 131.8725,
    "Latitude": -12.5236
  },
  {
    "Pcode": 822,
    "Locality": "PULARUMPI",
    "State": "NT",
    "Comments": "CARE PO",
    "Category": "Delivery Area",
    "Longitude": null,
    "Latitude": null
  },
  {
    "Pcode": 822,
    "Locality": "RAKULA",
    "State": "NT",
    "Comments": "",
    "Category": "Delivery Area",
    "Longitude": 130.4447,
    "Latitude": -13.0219
  },
  {
    "Pcode": 822,
    "Locality": "RAMINGINING",
    "State": "NT",
    "Comments": "",
    "Category": "Delivery Area",
    "Longitude": 134.9369,
    "Latitude": -12.3309
  },
  {
    "Pcode": 822,
    "Locality": "ROBIN FALLS",
    "State": "NT",
    "Comments": "",
    "Category": "Delivery Area",
    "Longitude": 131.1287,
    "Latitude": -13.368
  },
  {
    "Pcode": 822,
    "Locality": "RUM JUNGLE",
    "State": "NT",
    "Comments": "",
    "Category": "Delivery Area",
    "Longitude": 131.0295,
    "Latitude": -12.9946
  },
  {
    "Pcode": 822,
    "Locality": "SANDPALMS ROADHOUSE",
    "State": "NT",
    "Comments": "CARE PO",
    "Category": "Delivery Area",
    "Longitude": null,
    "Latitude": null
  },
  {
    "Pcode": 822,
    "Locality": "SOUTHPORT",
    "State": "NT",
    "Comments": "",
    "Category": "Delivery Area",
    "Longitude": 130.953,
    "Latitude": -12.7293
  },
  {
    "Pcode": 822,
    "Locality": "STAPLETON",
    "State": "NT",
    "Comments": "",
    "Category": "Delivery Area",
    "Longitude": 130.9991,
    "Latitude": -13.192
  },
  {
    "Pcode": 822,
    "Locality": "THAMARRURR",
    "State": "NT",
    "Comments": "",
    "Category": "Delivery Area",
    "Longitude": 129.6372,
    "Latitude": -14.2392
  },
  {
    "Pcode": 822,
    "Locality": "TIPPERARY",
    "State": "NT",
    "Comments": "",
    "Category": "Delivery Area",
    "Longitude": 130.827,
    "Latitude": -13.948
  },
  {
    "Pcode": 822,
    "Locality": "TIVENDALE",
    "State": "NT",
    "Comments": "",
    "Category": "Delivery Area",
    "Longitude": 130.9493,
    "Latitude": -12.4678
  },
  {
    "Pcode": 822,
    "Locality": "TIWI ISLANDS",
    "State": "NT",
    "Comments": "",
    "Category": "Delivery Area",
    "Longitude": 130.8225,
    "Latitude": -11.5153
  },
  {
    "Pcode": 822,
    "Locality": "TORTILLA FLATS",
    "State": "NT",
    "Comments": "",
    "Category": "Delivery Area",
    "Longitude": 131.1717,
    "Latitude": -13.0978
  },
  {
    "Pcode": 822,
    "Locality": "TUMBLING WATERS",
    "State": "NT",
    "Comments": "",
    "Category": "Delivery Area",
    "Longitude": 130.9625,
    "Latitude": -12.7551
  },
  {
    "Pcode": 822,
    "Locality": "UMBAKUMBA",
    "State": "NT",
    "Comments": "",
    "Category": "Delivery Area",
    "Longitude": 136.8052,
    "Latitude": -13.8613
  },
  {
    "Pcode": 822,
    "Locality": "VERNON ISLANDS",
    "State": "NT",
    "Comments": "",
    "Category": "Delivery Area",
    "Longitude": 131.0862,
    "Latitude": -12.0664
  },
  {
    "Pcode": 822,
    "Locality": "WADEYE",
    "State": "NT",
    "Comments": "",
    "Category": "Delivery Area",
    "Longitude": 129.5162,
    "Latitude": -14.2478
  },
  {
    "Pcode": 822,
    "Locality": "WAGAIT BEACH",
    "State": "NT",
    "Comments": "",
    "Category": "Delivery Area",
    "Longitude": 130.7514,
    "Latitude": -12.4536
  },
  {
    "Pcode": 822,
    "Locality": "WAK WAK",
    "State": "NT",
    "Comments": "",
    "Category": "Delivery Area",
    "Longitude": 131.2521,
    "Latitude": -12.6663
  },
  {
    "Pcode": 822,
    "Locality": "WARRUWI",
    "State": "NT",
    "Comments": "",
    "Category": "Delivery Area",
    "Longitude": 133.3798,
    "Latitude": -11.6566
  },
  {
    "Pcode": 822,
    "Locality": "WEDDELL",
    "State": "NT",
    "Comments": "",
    "Category": "Delivery Area",
    "Longitude": 131.0025,
    "Latitude": -12.6172
  },
  {
    "Pcode": 822,
    "Locality": "WEST ARNHEM",
    "State": "NT",
    "Comments": "",
    "Category": "Delivery Area",
    "Longitude": 133.6921,
    "Latitude": -12.0253
  },
  {
    "Pcode": 822,
    "Locality": "WICKHAM",
    "State": "NT",
    "Comments": "",
    "Category": "Delivery Area",
    "Longitude": 130.9238,
    "Latitude": -12.5487
  },
  {
    "Pcode": 822,
    "Locality": "WINNELLIE",
    "State": "NT",
    "Comments": "PO BAGS",
    "Category": "Delivery Area",
    "Longitude": null,
    "Latitude": null
  },
  {
    "Pcode": 822,
    "Locality": "WISHART",
    "State": "NT",
    "Comments": "",
    "Category": "Delivery Area",
    "Longitude": 130.9347,
    "Latitude": -12.4569
  },
  {
    "Pcode": 822,
    "Locality": "WOOLANING",
    "State": "NT",
    "Comments": "",
    "Category": "Delivery Area",
    "Longitude": null,
    "Latitude": null
  },
  {
    "Pcode": 822,
    "Locality": "WURRUMIYANGA",
    "State": "NT",
    "Comments": "",
    "Category": "Delivery Area",
    "Longitude": 130.6245,
    "Latitude": -11.7556
  },
  {
    "Pcode": 828,
    "Locality": "BERRIMAH",
    "State": "NT",
    "Comments": "",
    "Category": "Delivery Area",
    "Longitude": 130.9301,
    "Latitude": -12.4436
  },
  {
    "Pcode": 828,
    "Locality": "KNUCKEY LAGOON",
    "State": "NT",
    "Comments": "",
    "Category": "Delivery Area",
    "Longitude": 130.9457,
    "Latitude": -12.4243
  },
  {
    "Pcode": 829,
    "Locality": "HOLTZE",
    "State": "NT",
    "Comments": "",
    "Category": "Delivery Area",
    "Longitude": 131.0081,
    "Latitude": -12.4554
  },
  {
    "Pcode": 829,
    "Locality": "PINELANDS",
    "State": "NT",
    "Comments": "",
    "Category": "Delivery Area",
    "Longitude": 130.9569,
    "Latitude": -12.4565
  },
  {
    "Pcode": 830,
    "Locality": "ARCHER",
    "State": "NT",
    "Comments": "",
    "Category": "Delivery Area",
    "Longitude": 130.958,
    "Latitude": -12.5219
  },
  {
    "Pcode": 830,
    "Locality": "DRIVER",
    "State": "NT",
    "Comments": "",
    "Category": "Delivery Area",
    "Longitude": 130.9769,
    "Latitude": -12.4835
  },
  {
    "Pcode": 830,
    "Locality": "DURACK",
    "State": "NT",
    "Comments": "",
    "Category": "Delivery Area",
    "Longitude": 130.9728,
    "Latitude": -12.4725
  },
  {
    "Pcode": 830,
    "Locality": "FARRAR",
    "State": "NT",
    "Comments": "",
    "Category": "Delivery Area",
    "Longitude": 130.9967,
    "Latitude": -12.4798
  },
  {
    "Pcode": 830,
    "Locality": "GRAY",
    "State": "NT",
    "Comments": "",
    "Category": "Delivery Area",
    "Longitude": 130.9815,
    "Latitude": -12.4904
  },
  {
    "Pcode": 830,
    "Locality": "MARLOW LAGOON",
    "State": "NT",
    "Comments": "",
    "Category": "Delivery Area",
    "Longitude": 130.9572,
    "Latitude": -12.496
  },
  {
    "Pcode": 830,
    "Locality": "MOULDEN",
    "State": "NT",
    "Comments": "",
    "Category": "Delivery Area",
    "Longitude": 130.9743,
    "Latitude": -12.506
  },
  {
    "Pcode": 830,
    "Locality": "PALMERSTON",
    "State": "NT",
    "Comments": "",
    "Category": "Delivery Area",
    "Longitude": 130.9852,
    "Latitude": -12.4801
  },
  {
    "Pcode": 830,
    "Locality": "SHOAL BAY",
    "State": "NT",
    "Comments": "",
    "Category": "Delivery Area",
    "Longitude": 131.0535,
    "Latitude": -12.3658
  },
  {
    "Pcode": 830,
    "Locality": "WOODROFFE",
    "State": "NT",
    "Comments": "",
    "Category": "Delivery Area",
    "Longitude": 130.9807,
    "Latitude": -12.5032
  },
  {
    "Pcode": 830,
    "Locality": "YARRAWONGA",
    "State": "NT",
    "Comments": "",
    "Category": "Delivery Area",
    "Longitude": 130.99,
    "Latitude": -12.473
  },
  {
    "Pcode": 831,
    "Locality": "PALMERSTON",
    "State": "NT",
    "Comments": "PO BOXES",
    "Category": "Post Office Boxes",
    "Longitude": null,
    "Latitude": null
  },
  {
    "Pcode": 832,
    "Locality": "BAKEWELL",
    "State": "NT",
    "Comments": "",
    "Category": "Delivery Area",
    "Longitude": 130.9929,
    "Latitude": -12.4966
  },
  {
    "Pcode": 832,
    "Locality": "BELLAMACK",
    "State": "NT",
    "Comments": "",
    "Category": "Delivery Area",
    "Longitude": 130.983,
    "Latitude": -12.5154
  },
  {
    "Pcode": 832,
    "Locality": "GUNN",
    "State": "NT",
    "Comments": "",
    "Category": "Delivery Area",
    "Longitude": 130.9944,
    "Latitude": -12.4875
  },
  {
    "Pcode": 832,
    "Locality": "JOHNSTON",
    "State": "NT",
    "Comments": "",
    "Category": "Delivery Area",
    "Longitude": 131.0062,
    "Latitude": -12.4917
  },
  {
    "Pcode": 832,
    "Locality": "MITCHELL",
    "State": "NT",
    "Comments": "",
    "Category": "Delivery Area",
    "Longitude": 130.9974,
    "Latitude": -12.5306
  },
  {
    "Pcode": 832,
    "Locality": "ROSEBERY",
    "State": "NT",
    "Comments": "",
    "Category": "Delivery Area",
    "Longitude": 130.9912,
    "Latitude": -12.5085
  },
  {
    "Pcode": 832,
    "Locality": "ROSEBERY HEIGHTS",
    "State": "NT",
    "Comments": "",
    "Category": "Delivery Area",
    "Longitude": null,
    "Latitude": null
  },
  {
    "Pcode": 832,
    "Locality": "ZUCCOLI",
    "State": "NT",
    "Comments": "",
    "Category": "Delivery Area",
    "Longitude": 131.0043,
    "Latitude": -12.5118
  },
  {
    "Pcode": 834,
    "Locality": "VIRGINIA",
    "State": "NT",
    "Comments": "",
    "Category": "Delivery Area",
    "Longitude": 131.0191,
    "Latitude": -12.5413
  },
  {
    "Pcode": 835,
    "Locality": "HOWARD SPRINGS",
    "State": "NT",
    "Comments": "",
    "Category": "Delivery Area",
    "Longitude": 131.0621,
    "Latitude": -12.4672
  },
  {
    "Pcode": 836,
    "Locality": "GIRRAWEEN",
    "State": "NT",
    "Comments": "",
    "Category": "Delivery Area",
    "Longitude": 131.0962,
    "Latitude": -12.5255
  },
  {
    "Pcode": 836,
    "Locality": "HERBERT",
    "State": "NT",
    "Comments": "",
    "Category": "Delivery Area",
    "Longitude": 131.1595,
    "Latitude": -12.5256
  },
  {
    "Pcode": 836,
    "Locality": "HUMPTY DOO",
    "State": "NT",
    "Comments": "",
    "Category": "Delivery Area",
    "Longitude": 131.1258,
    "Latitude": -12.5841
  },
  {
    "Pcode": 837,
    "Locality": "MANTON",
    "State": "NT",
    "Comments": "",
    "Category": "Delivery Area",
    "Longitude": 131.19,
    "Latitude": -12.8131
  },
  {
    "Pcode": 837,
    "Locality": "NOONAMAH",
    "State": "NT",
    "Comments": "",
    "Category": "Delivery Area",
    "Longitude": 131.0915,
    "Latitude": -12.6427
  },
  {
    "Pcode": 838,
    "Locality": "BERRY SPRINGS",
    "State": "NT",
    "Comments": "",
    "Category": "Delivery Area",
    "Longitude": 131.0047,
    "Latitude": -12.722
  },
  {
    "Pcode": 839,
    "Locality": "COOLALINGA",
    "State": "NT",
    "Comments": "",
    "Category": "Delivery Area",
    "Longitude": 131.0418,
    "Latitude": -12.5212
  },
  {
    "Pcode": 840,
    "Locality": "DUNDEE BEACH",
    "State": "NT",
    "Comments": "",
    "Category": "Delivery Area",
    "Longitude": 130.3579,
    "Latitude": -12.7325
  },
  {
    "Pcode": 840,
    "Locality": "DUNDEE DOWNS",
    "State": "NT",
    "Comments": "",
    "Category": "Delivery Area",
    "Longitude": 130.5113,
    "Latitude": -12.7655
  },
  {
    "Pcode": 840,
    "Locality": "DUNDEE FOREST",
    "State": "NT",
    "Comments": "",
    "Category": "Delivery Area",
    "Longitude": 130.4488,
    "Latitude": -12.7215
  },
  {
    "Pcode": 841,
    "Locality": "DARWIN RIVER",
    "State": "NT",
    "Comments": "",
    "Category": "Delivery Area",
    "Longitude": 130.964,
    "Latitude": -12.816
  },
  {
    "Pcode": 845,
    "Locality": "BATCHELOR",
    "State": "NT",
    "Comments": "",
    "Category": "Delivery Area",
    "Longitude": 131.0467,
    "Latitude": -13.087
  },
  {
    "Pcode": 846,
    "Locality": "ADELAIDE RIVER",
    "State": "NT",
    "Comments": "",
    "Category": "Delivery Area",
    "Longitude": 131.1674,
    "Latitude": -13.1661
  },
  {
    "Pcode": 847,
    "Locality": "PINE CREEK",
    "State": "NT",
    "Comments": "",
    "Category": "Delivery Area",
    "Longitude": 131.8261,
    "Latitude": -13.8235
  },
  {
    "Pcode": 850,
    "Locality": "COSSACK",
    "State": "NT",
    "Comments": "",
    "Category": "Delivery Area",
    "Longitude": 132.1764,
    "Latitude": -14.4617
  },
  {
    "Pcode": 850,
    "Locality": "EMUNGALAN",
    "State": "NT",
    "Comments": "",
    "Category": "Delivery Area",
    "Longitude": 132.2563,
    "Latitude": -14.4044
  },
  {
    "Pcode": 850,
    "Locality": "KATHERINE",
    "State": "NT",
    "Comments": "",
    "Category": "Delivery Area",
    "Longitude": 132.27,
    "Latitude": -14.4496
  },
  {
    "Pcode": 850,
    "Locality": "KATHERINE EAST",
    "State": "NT",
    "Comments": "",
    "Category": "Delivery Area",
    "Longitude": 132.2848,
    "Latitude": -14.464
  },
  {
    "Pcode": 850,
    "Locality": "KATHERINE SOUTH",
    "State": "NT",
    "Comments": "",
    "Category": "Delivery Area",
    "Longitude": 132.2621,
    "Latitude": -14.475
  },
  {
    "Pcode": 850,
    "Locality": "LANSDOWNE",
    "State": "NT",
    "Comments": "",
    "Category": "Delivery Area",
    "Longitude": 132.3842,
    "Latitude": -14.421
  },
  {
    "Pcode": 851,
    "Locality": "KATHERINE",
    "State": "NT",
    "Comments": "PO BOXES",
    "Category": "Post Office Boxes",
    "Longitude": null,
    "Latitude": null
  },
  {
    "Pcode": 852,
    "Locality": "ARNOLD",
    "State": "NT",
    "Comments": "",
    "Category": "Delivery Area",
    "Longitude": 134.3834,
    "Latitude": -16.1407
  },
  {
    "Pcode": 852,
    "Locality": "BAINES",
    "State": "NT",
    "Comments": "",
    "Category": "Delivery Area",
    "Longitude": 129.6902,
    "Latitude": -15.9332
  },
  {
    "Pcode": 852,
    "Locality": "BARUNGA",
    "State": "NT",
    "Comments": "",
    "Category": "Delivery Area",
    "Longitude": 132.8669,
    "Latitude": -14.5287
  },
  {
    "Pcode": 852,
    "Locality": "BESWICK",
    "State": "NT",
    "Comments": "",
    "Category": "Delivery Area",
    "Longitude": 133.1168,
    "Latitude": -14.5571
  },
  {
    "Pcode": 852,
    "Locality": "BESWICK CREEK",
    "State": "NT",
    "Comments": "",
    "Category": "Delivery Area",
    "Longitude": 133.0712,
    "Latitude": -14.4891
  },
  {
    "Pcode": 852,
    "Locality": "BINJARI",
    "State": "NT",
    "Comments": "",
    "Category": "Delivery Area",
    "Longitude": 132.1838,
    "Latitude": -14.5517
  },
  {
    "Pcode": 852,
    "Locality": "BIRDUM",
    "State": "NT",
    "Comments": "",
    "Category": "Delivery Area",
    "Longitude": 133.1512,
    "Latitude": -16.232
  },
  {
    "Pcode": 852,
    "Locality": "BRADSHAW",
    "State": "NT",
    "Comments": "",
    "Category": "Delivery Area",
    "Longitude": 130.4835,
    "Latitude": -15.0753
  },
  {
    "Pcode": 852,
    "Locality": "BUCHANAN",
    "State": "NT",
    "Comments": "",
    "Category": "Delivery Area",
    "Longitude": 129.7154,
    "Latitude": -17.7056
  },
  {
    "Pcode": 852,
    "Locality": "BULMAN WEEMOL",
    "State": "NT",
    "Comments": "",
    "Category": "Delivery Area",
    "Longitude": 134.3135,
    "Latitude": -13.6543
  },
  {
    "Pcode": 852,
    "Locality": "CRESWELL",
    "State": "NT",
    "Comments": "",
    "Category": "Delivery Area",
    "Longitude": 135.9124,
    "Latitude": -17.6905
  },
  {
    "Pcode": 852,
    "Locality": "DAGURAGU",
    "State": "NT",
    "Comments": "",
    "Category": "Delivery Area",
    "Longitude": 130.805,
    "Latitude": -17.4199
  },
  {
    "Pcode": 852,
    "Locality": "DALY WATERS",
    "State": "NT",
    "Comments": "",
    "Category": "Delivery Area",
    "Longitude": 133.3788,
    "Latitude": -16.2621
  },
  {
    "Pcode": 852,
    "Locality": "DELAMERE",
    "State": "NT",
    "Comments": "",
    "Category": "Delivery Area",
    "Longitude": 131.6032,
    "Latitude": -15.3295
  },
  {
    "Pcode": 852,
    "Locality": "EDITH",
    "State": "NT",
    "Comments": "",
    "Category": "Delivery Area",
    "Longitude": 131.923,
    "Latitude": -14.0622
  },
  {
    "Pcode": 852,
    "Locality": "ELSEY",
    "State": "NT",
    "Comments": "",
    "Category": "Delivery Area",
    "Longitude": 133.3877,
    "Latitude": -15.1311
  },
  {
    "Pcode": 852,
    "Locality": "FLORINA",
    "State": "NT",
    "Comments": "",
    "Category": "Delivery Area",
    "Longitude": 131.9114,
    "Latitude": -14.5181
  },
  {
    "Pcode": 852,
    "Locality": "FLYING FOX",
    "State": "NT",
    "Comments": "",
    "Category": "Delivery Area",
    "Longitude": 134.1211,
    "Latitude": -14.393
  },
  {
    "Pcode": 852,
    "Locality": "GREGORY",
    "State": "NT",
    "Comments": "",
    "Category": "Delivery Area",
    "Longitude": 130.3543,
    "Latitude": -16.2852
  },
  {
    "Pcode": 852,
    "Locality": "GULUNG MARDRULK",
    "State": "NT",
    "Comments": "",
    "Category": "Delivery Area",
    "Longitude": 133.5772,
    "Latitude": -13.5632
  },
  {
    "Pcode": 852,
    "Locality": "GURINDJI",
    "State": "NT",
    "Comments": "",
    "Category": "Delivery Area",
    "Longitude": 131.1409,
    "Latitude": -18.156
  },
  {
    "Pcode": 852,
    "Locality": "HELEN SPRINGS STATION",
    "State": "NT",
    "Comments": "CARE PO",
    "Category": "Delivery Area",
    "Longitude": null,
    "Latitude": null
  },
  {
    "Pcode": 852,
    "Locality": "JILKMINGGAN",
    "State": "NT",
    "Comments": "",
    "Category": "Delivery Area",
    "Longitude": 133.2946,
    "Latitude": -14.9617
  },
  {
    "Pcode": 852,
    "Locality": "KALKARINDJI",
    "State": "NT",
    "Comments": "",
    "Category": "Delivery Area",
    "Longitude": 130.8333,
    "Latitude": -17.4483
  },
  {
    "Pcode": 852,
    "Locality": "KATHERINE",
    "State": "NT",
    "Comments": "PO BAGS",
    "Category": "Delivery Area",
    "Longitude": null,
    "Latitude": null
  },
  {
    "Pcode": 852,
    "Locality": "LAJAMANU",
    "State": "NT",
    "Comments": "",
    "Category": "Delivery Area",
    "Longitude": 130.5077,
    "Latitude": -18.4565
  },
  {
    "Pcode": 852,
    "Locality": "LARRIMAH",
    "State": "NT",
    "Comments": "",
    "Category": "Delivery Area",
    "Longitude": 133.2212,
    "Latitude": -15.6072
  },
  {
    "Pcode": 852,
    "Locality": "LIMMEN",
    "State": "NT",
    "Comments": "",
    "Category": "Delivery Area",
    "Longitude": 135.7331,
    "Latitude": -14.8742
  },
  {
    "Pcode": 852,
    "Locality": "MANBULLOO",
    "State": "NT",
    "Comments": "",
    "Category": "Delivery Area",
    "Longitude": 132.2483,
    "Latitude": -14.809
  },
  {
    "Pcode": 852,
    "Locality": "MARANBOY",
    "State": "NT",
    "Comments": "CARE PO",
    "Category": "Delivery Area",
    "Longitude": null,
    "Latitude": null
  },
  {
    "Pcode": 852,
    "Locality": "MATARANKA",
    "State": "NT",
    "Comments": "",
    "Category": "Delivery Area",
    "Longitude": 133.0438,
    "Latitude": -14.9549
  },
  {
    "Pcode": 852,
    "Locality": "MCARTHUR",
    "State": "NT",
    "Comments": "",
    "Category": "Delivery Area",
    "Longitude": 136.0681,
    "Latitude": -16.1721
  },
  {
    "Pcode": 852,
    "Locality": "MINIYERI",
    "State": "NT",
    "Comments": "",
    "Category": "Delivery Area",
    "Longitude": 134.0832,
    "Latitude": -15.2277
  },
  {
    "Pcode": 852,
    "Locality": "NGUKURR",
    "State": "NT",
    "Comments": "",
    "Category": "Delivery Area",
    "Longitude": 134.7432,
    "Latitude": -14.7329
  },
  {
    "Pcode": 852,
    "Locality": "NITMILUK",
    "State": "NT",
    "Comments": "",
    "Category": "Delivery Area",
    "Longitude": 132.6256,
    "Latitude": -14.1557
  },
  {
    "Pcode": 852,
    "Locality": "NUTWOOD DOWNS",
    "State": "NT",
    "Comments": "CARE PO",
    "Category": "Delivery Area",
    "Longitude": null,
    "Latitude": null
  },
  {
    "Pcode": 852,
    "Locality": "PELLEW ISLANDS",
    "State": "NT",
    "Comments": "",
    "Category": "Delivery Area",
    "Longitude": 136.8164,
    "Latitude": -15.679
  },
  {
    "Pcode": 852,
    "Locality": "PIGEON HOLE",
    "State": "NT",
    "Comments": "",
    "Category": "Delivery Area",
    "Longitude": 131.2151,
    "Latitude": -16.7951
  },
  {
    "Pcode": 852,
    "Locality": "ROBINSON RIVER",
    "State": "NT",
    "Comments": "",
    "Category": "Delivery Area",
    "Longitude": 136.9808,
    "Latitude": -16.7594
  },
  {
    "Pcode": 852,
    "Locality": "STURT PLATEAU",
    "State": "NT",
    "Comments": "",
    "Category": "Delivery Area",
    "Longitude": 132.6536,
    "Latitude": -15.625
  },
  {
    "Pcode": 852,
    "Locality": "TANAMI EAST",
    "State": "NT",
    "Comments": "",
    "Category": "Delivery Area",
    "Longitude": 132.8084,
    "Latitude": -18.4297
  },
  {
    "Pcode": 852,
    "Locality": "TIMBER CREEK",
    "State": "NT",
    "Comments": "",
    "Category": "Delivery Area",
    "Longitude": 130.4926,
    "Latitude": -15.654
  },
  {
    "Pcode": 852,
    "Locality": "TOP SPRINGS",
    "State": "NT",
    "Comments": "",
    "Category": "Delivery Area",
    "Longitude": 131.7996,
    "Latitude": -16.5484
  },
  {
    "Pcode": 852,
    "Locality": "URALLA",
    "State": "NT",
    "Comments": "",
    "Category": "Delivery Area",
    "Longitude": 132.2971,
    "Latitude": -14.4879
  },
  {
    "Pcode": 852,
    "Locality": "VENN",
    "State": "NT",
    "Comments": "",
    "Category": "Delivery Area",
    "Longitude": 132.559,
    "Latitude": -14.5481
  },
  {
    "Pcode": 852,
    "Locality": "VICTORIA RIVER",
    "State": "NT",
    "Comments": "",
    "Category": "Delivery Area",
    "Longitude": 131.5193,
    "Latitude": -16.6387
  },
  {
    "Pcode": 852,
    "Locality": "WARUMUNGU",
    "State": "NT",
    "Comments": "",
    "Category": "Delivery Area",
    "Longitude": 133.8357,
    "Latitude": -20.1379
  },
  {
    "Pcode": 852,
    "Locality": "WAVE HILL",
    "State": "NT",
    "Comments": "",
    "Category": "Delivery Area",
    "Longitude": null,
    "Latitude": null
  },
  {
    "Pcode": 852,
    "Locality": "WILTON",
    "State": "NT",
    "Comments": "",
    "Category": "Delivery Area",
    "Longitude": 134.8941,
    "Latitude": -14.4088
  },
  {
    "Pcode": 852,
    "Locality": "YARRALIN",
    "State": "NT",
    "Comments": "",
    "Category": "Delivery Area",
    "Longitude": 130.8399,
    "Latitude": -16.4403
  },
  {
    "Pcode": 853,
    "Locality": "TINDAL",
    "State": "NT",
    "Comments": "",
    "Category": "Delivery Area",
    "Longitude": 132.3802,
    "Latitude": -14.5258
  },
  {
    "Pcode": 854,
    "Locality": "BORROLOOLA",
    "State": "NT",
    "Comments": "",
    "Category": "Delivery Area",
    "Longitude": 136.3086,
    "Latitude": -16.0711
  },
  {
    "Pcode": 854,
    "Locality": "KING ASH BAY",
    "State": "NT",
    "Comments": "",
    "Category": "Delivery Area",
    "Longitude": null,
    "Latitude": null
  },
  {
    "Pcode": 860,
    "Locality": "TENNANT CREEK",
    "State": "NT",
    "Comments": "",
    "Category": "Delivery Area",
    "Longitude": 134.1917,
    "Latitude": -19.659
  },
  {
    "Pcode": 861,
    "Locality": "TENNANT CREEK",
    "State": "NT",
    "Comments": "PO BOXES",
    "Category": "Post Office Boxes",
    "Longitude": null,
    "Latitude": null
  },
  {
    "Pcode": 862,
    "Locality": "CALVERT",
    "State": "NT",
    "Comments": "",
    "Category": "Delivery Area",
    "Longitude": 137.2982,
    "Latitude": -16.8022
  },
  {
    "Pcode": 862,
    "Locality": "ELLIOTT",
    "State": "NT",
    "Comments": "",
    "Category": "Delivery Area",
    "Longitude": 133.5248,
    "Latitude": -17.5524
  },
  {
    "Pcode": 862,
    "Locality": "NEWCASTLE WATERS",
    "State": "NT",
    "Comments": "",
    "Category": "Delivery Area",
    "Longitude": 133.4071,
    "Latitude": -17.3645
  },
  {
    "Pcode": 862,
    "Locality": "NICHOLSON",
    "State": "NT",
    "Comments": "",
    "Category": "Delivery Area",
    "Longitude": 137.2185,
    "Latitude": -18.5038
  },
  {
    "Pcode": 862,
    "Locality": "PAMAYU",
    "State": "NT",
    "Comments": "",
    "Category": "Delivery Area",
    "Longitude": 133.904,
    "Latitude": -17.6013
  },
  {
    "Pcode": 862,
    "Locality": "RENNER SPRINGS",
    "State": "NT",
    "Comments": "",
    "Category": "Delivery Area",
    "Longitude": null,
    "Latitude": null
  },
  {
    "Pcode": 862,
    "Locality": "TABLELANDS",
    "State": "NT",
    "Comments": "",
    "Category": "Delivery Area",
    "Longitude": 135.2059,
    "Latitude": -19.0264
  },
  {
    "Pcode": 862,
    "Locality": "TENNANT CREEK",
    "State": "NT",
    "Comments": "PO BAGS",
    "Category": "Delivery Area",
    "Longitude": null,
    "Latitude": null
  },
  {
    "Pcode": 862,
    "Locality": "WARREGO",
    "State": "NT",
    "Comments": "",
    "Category": "Delivery Area",
    "Longitude": null,
    "Latitude": null
  },
  {
    "Pcode": 870,
    "Locality": "ALICE SPRINGS",
    "State": "NT",
    "Comments": "",
    "Category": "Delivery Area",
    "Longitude": 133.8801,
    "Latitude": -23.6982
  },
  {
    "Pcode": 870,
    "Locality": "ARALUEN",
    "State": "NT",
    "Comments": "",
    "Category": "Delivery Area",
    "Longitude": 133.852,
    "Latitude": -23.697
  },
  {
    "Pcode": 870,
    "Locality": "BRAITLING",
    "State": "NT",
    "Comments": "",
    "Category": "Delivery Area",
    "Longitude": 133.8634,
    "Latitude": -23.6743
  },
  {
    "Pcode": 870,
    "Locality": "CICCONE",
    "State": "NT",
    "Comments": "",
    "Category": "Delivery Area",
    "Longitude": 133.8697,
    "Latitude": -23.6922
  },
  {
    "Pcode": 870,
    "Locality": "DESERT SPRINGS",
    "State": "NT",
    "Comments": "",
    "Category": "Delivery Area",
    "Longitude": 133.8882,
    "Latitude": -23.7122
  },
  {
    "Pcode": 870,
    "Locality": "EAST SIDE",
    "State": "NT",
    "Comments": "",
    "Category": "Delivery Area",
    "Longitude": 133.8961,
    "Latitude": -23.6921
  },
  {
    "Pcode": 870,
    "Locality": "GILLEN",
    "State": "NT",
    "Comments": "",
    "Category": "Delivery Area",
    "Longitude": 133.866,
    "Latitude": -23.7108
  },
  {
    "Pcode": 870,
    "Locality": "SADADEEN",
    "State": "NT",
    "Comments": "",
    "Category": "Delivery Area",
    "Longitude": 133.9001,
    "Latitude": -23.7025
  },
  {
    "Pcode": 870,
    "Locality": "STUART",
    "State": "NT",
    "Comments": "",
    "Category": "Delivery Area",
    "Longitude": 133.8787,
    "Latitude": -23.6763
  },
  {
    "Pcode": 870,
    "Locality": "THE GAP",
    "State": "NT",
    "Comments": "",
    "Category": "Delivery Area",
    "Longitude": 133.8734,
    "Latitude": -23.7152
  },
  {
    "Pcode": 870,
    "Locality": "WHITE GUMS",
    "State": "NT",
    "Comments": "",
    "Category": "Delivery Area",
    "Longitude": 133.7565,
    "Latitude": -23.7503
  },
  {
    "Pcode": 871,
    "Locality": "ALICE SPRINGS",
    "State": "NT",
    "Comments": "PO BOXES",
    "Category": "Post Office Boxes",
    "Longitude": null,
    "Latitude": null
  },
  {
    "Pcode": 872,
    "Locality": "ALI CURUNG",
    "State": "NT",
    "Comments": "",
    "Category": "Delivery Area",
    "Longitude": 134.3212,
    "Latitude": -21.0241
  },
  {
    "Pcode": 872,
    "Locality": "ALICE SPRINGS",
    "State": "NT",
    "Comments": "PO BAGS",
    "Category": "Delivery Area",
    "Longitude": null,
    "Latitude": null
  },
  {
    "Pcode": 872,
    "Locality": "AMATA",
    "State": "SA",
    "Comments": "",
    "Category": "Delivery Area",
    "Longitude": 131.1741,
    "Latitude": -26.129
  },
  {
    "Pcode": 872,
    "Locality": "AMPILATWATJA",
    "State": "NT",
    "Comments": "",
    "Category": "Delivery Area",
    "Longitude": 135.2424,
    "Latitude": -21.6649
  },
  {
    "Pcode": 872,
    "Locality": "ANANGU PITJANTJATJARA YANKUNYTJATJARA",
    "State": "SA",
    "Comments": "REMOTE BOUNDED LOCALITY",
    "Category": "Delivery Area",
    "Longitude": null,
    "Latitude": null
  },
  {
    "Pcode": 872,
    "Locality": "ANATYE",
    "State": "NT",
    "Comments": "",
    "Category": "Delivery Area",
    "Longitude": 136.989,
    "Latitude": -23.064
  },
  {
    "Pcode": 872,
    "Locality": "ANMATJERE",
    "State": "NT",
    "Comments": "",
    "Category": "Delivery Area",
    "Longitude": 133.3177,
    "Latitude": -22.1069
  },
  {
    "Pcode": 872,
    "Locality": "AREYONGA",
    "State": "NT",
    "Comments": "",
    "Category": "Delivery Area",
    "Longitude": 132.2716,
    "Latitude": -24.0855
  },
  {
    "Pcode": 872,
    "Locality": "ATITJERE",
    "State": "NT",
    "Comments": "",
    "Category": "Delivery Area",
    "Longitude": 134.9325,
    "Latitude": -22.982
  },
  {
    "Pcode": 872,
    "Locality": "AYERS RANGE SOUTH",
    "State": "SA",
    "Comments": "",
    "Category": "Delivery Area",
    "Longitude": 133.2835,
    "Latitude": -26.1909
  },
  {
    "Pcode": 872,
    "Locality": "BARROW CREEK",
    "State": "NT",
    "Comments": "",
    "Category": "Delivery Area",
    "Longitude": null,
    "Latitude": null
  },
  {
    "Pcode": 872,
    "Locality": "BURT PLAIN",
    "State": "NT",
    "Comments": "",
    "Category": "Delivery Area",
    "Longitude": 133.4735,
    "Latitude": -23.3892
  },
  {
    "Pcode": 872,
    "Locality": "CANTEEN CREEK",
    "State": "NT",
    "Comments": "",
    "Category": "Delivery Area",
    "Longitude": 135.5868,
    "Latitude": -20.6371
  },
  {
    "Pcode": 872,
    "Locality": "CHILLA WELL",
    "State": "NT",
    "Comments": "",
    "Category": "Delivery Area",
    "Longitude": 131.4272,
    "Latitude": -21.4583
  },
  {
    "Pcode": 872,
    "Locality": "COSTELLO",
    "State": "NT",
    "Comments": "",
    "Category": "Delivery Area",
    "Longitude": 136.9878,
    "Latitude": -20.9202
  },
  {
    "Pcode": 872,
    "Locality": "DAVENPORT",
    "State": "NT",
    "Comments": "",
    "Category": "Delivery Area",
    "Longitude": 134.9195,
    "Latitude": -20.8961
  },
  {
    "Pcode": 872,
    "Locality": "DE ROSE HILL",
    "State": "SA",
    "Comments": "",
    "Category": "Delivery Area",
    "Longitude": 133.3228,
    "Latitude": -26.5342
  },
  {
    "Pcode": 872,
    "Locality": "ENGAWALA",
    "State": "NT",
    "Comments": "",
    "Category": "Delivery Area",
    "Longitude": 134.4575,
    "Latitude": -22.8043
  },
  {
    "Pcode": 872,
    "Locality": "ERLDUNDA",
    "State": "NT",
    "Comments": "",
    "Category": "Delivery Area",
    "Longitude": null,
    "Latitude": null
  },
  {
    "Pcode": 872,
    "Locality": "ERNABELLA (PUKATJA)",
    "State": "SA",
    "Comments": "DUAL LOCALITY NAMES",
    "Category": "Delivery Area",
    "Longitude": null,
    "Latitude": null
  },
  {
    "Pcode": 872,
    "Locality": "FINKE",
    "State": "NT",
    "Comments": "",
    "Category": "Delivery Area",
    "Longitude": 134.5757,
    "Latitude": -25.5727
  },
  {
    "Pcode": 872,
    "Locality": "GHAN",
    "State": "NT",
    "Comments": "",
    "Category": "Delivery Area",
    "Longitude": 134.1738,
    "Latitude": -25.0668
  },
  {
    "Pcode": 872,
    "Locality": "GIBSON DESERT NORTH",
    "State": "WA",
    "Comments": "WA LOCALITY- VIA ALICE SPRINGS",
    "Category": "Delivery Area",
    "Longitude": 126.9092,
    "Latitude": -22.2842
  },
  {
    "Pcode": 872,
    "Locality": "GIBSON DESERT SOUTH",
    "State": "WA",
    "Comments": "WA LOCALITY- VIA ALICE SPRINGS",
    "Category": "Delivery Area",
    "Longitude": 126.2419,
    "Latitude": -25.0968
  },
  {
    "Pcode": 872,
    "Locality": "HAASTS BLUFF",
    "State": "NT",
    "Comments": "",
    "Category": "Delivery Area",
    "Longitude": 131.8642,
    "Latitude": -23.4522
  },
  {
    "Pcode": 872,
    "Locality": "HALE",
    "State": "NT",
    "Comments": "",
    "Category": "Delivery Area",
    "Longitude": 135.2852,
    "Latitude": -24.0477
  },
  {
    "Pcode": 872,
    "Locality": "HART",
    "State": "NT",
    "Comments": "",
    "Category": "Delivery Area",
    "Longitude": 135.1424,
    "Latitude": -23.0351
  },
  {
    "Pcode": 872,
    "Locality": "HART RANGE",
    "State": "NT",
    "Comments": "",
    "Category": "Delivery Area",
    "Longitude": null,
    "Latitude": null
  },
  {
    "Pcode": 872,
    "Locality": "HERMANNSBURG",
    "State": "NT",
    "Comments": "",
    "Category": "Delivery Area",
    "Longitude": 132.7979,
    "Latitude": -23.9347
  },
  {
    "Pcode": 872,
    "Locality": "HUGH",
    "State": "NT",
    "Comments": "",
    "Category": "Delivery Area",
    "Longitude": 133.61,
    "Latitude": -24.1122
  },
  {
    "Pcode": 872,
    "Locality": "IMANPA",
    "State": "NT",
    "Comments": "",
    "Category": "Delivery Area",
    "Longitude": 132.5682,
    "Latitude": -25.1184
  },
  {
    "Pcode": 872,
    "Locality": "INDULKANA (IWANTJA)",
    "State": "SA",
    "Comments": "DUAL LOCALITY NAMES",
    "Category": "Delivery Area",
    "Longitude": null,
    "Latitude": null
  },
  {
    "Pcode": 872,
    "Locality": "ININTI STORE",
    "State": "NT",
    "Comments": "",
    "Category": "Delivery Area",
    "Longitude": null,
    "Latitude": null
  },
  {
    "Pcode": 872,
    "Locality": "IWANTJA",
    "State": "SA",
    "Comments": "",
    "Category": "Delivery Area",
    "Longitude": null,
    "Latitude": null
  },
  {
    "Pcode": 872,
    "Locality": "KALKA",
    "State": "SA",
    "Comments": "",
    "Category": "Delivery Area",
    "Longitude": 129.1526,
    "Latitude": -26.1142
  },
  {
    "Pcode": 872,
    "Locality": "KALTJITI",
    "State": "SA",
    "Comments": "",
    "Category": "Delivery Area",
    "Longitude": 132.0299,
    "Latitude": -26.7688
  },
  {
    "Pcode": 872,
    "Locality": "KALTUKATJARA",
    "State": "NT",
    "Comments": "",
    "Category": "Delivery Area",
    "Longitude": 129.0962,
    "Latitude": -24.8774
  },
  {
    "Pcode": 872,
    "Locality": "KANPI",
    "State": "SA",
    "Comments": "",
    "Category": "Delivery Area",
    "Longitude": 130.1157,
    "Latitude": -26.164
  },
  {
    "Pcode": 872,
    "Locality": "KINGS CREEK STATION",
    "State": "NT",
    "Comments": "",
    "Category": "Delivery Area",
    "Longitude": null,
    "Latitude": null
  },
  {
    "Pcode": 872,
    "Locality": "KINTORE",
    "State": "NT",
    "Comments": "",
    "Category": "Delivery Area",
    "Longitude": 129.3844,
    "Latitude": -23.2736
  },
  {
    "Pcode": 872,
    "Locality": "KIWIRRKURRA",
    "State": "WA",
    "Comments": "CARE PO",
    "Category": "Delivery Area",
    "Longitude": null,
    "Latitude": null
  },
  {
    "Pcode": 872,
    "Locality": "KULGERA",
    "State": "NT",
    "Comments": "",
    "Category": "Delivery Area",
    "Longitude": null,
    "Latitude": null
  },
  {
    "Pcode": 872,
    "Locality": "KUNPARRKA",
    "State": "NT",
    "Comments": "",
    "Category": "Delivery Area",
    "Longitude": 131.6362,
    "Latitude": -23.3369
  },
  {
    "Pcode": 872,
    "Locality": "LAKE MACKAY",
    "State": "NT",
    "Comments": "",
    "Category": "Delivery Area",
    "Longitude": 129.8294,
    "Latitude": -22.568
  },
  {
    "Pcode": 872,
    "Locality": "LAMBINA",
    "State": "SA",
    "Comments": "",
    "Category": "Delivery Area",
    "Longitude": 134.046,
    "Latitude": -26.9979
  },
  {
    "Pcode": 872,
    "Locality": "LARAMBA",
    "State": "NT",
    "Comments": "",
    "Category": "Delivery Area",
    "Longitude": 132.7616,
    "Latitude": -22.541
  },
  {
    "Pcode": 872,
    "Locality": "MACDONNELL RANGE",
    "State": "NT",
    "Comments": "",
    "Category": "Delivery Area",
    "Longitude": null,
    "Latitude": null
  },
  {
    "Pcode": 872,
    "Locality": "MEREENIE",
    "State": "NT",
    "Comments": "",
    "Category": "Delivery Area",
    "Longitude": 131.8261,
    "Latitude": -23.8942
  },
  {
    "Pcode": 872,
    "Locality": "MIMILI",
    "State": "SA",
    "Comments": "",
    "Category": "Delivery Area",
    "Longitude": 132.6986,
    "Latitude": -27.0244
  },
  {
    "Pcode": 872,
    "Locality": "MOUNT LIEBIG",
    "State": "NT",
    "Comments": "",
    "Category": "Delivery Area",
    "Longitude": 131.2776,
    "Latitude": -23.268
  },
  {
    "Pcode": 872,
    "Locality": "MOUNT ZEIL",
    "State": "NT",
    "Comments": "",
    "Category": "Delivery Area",
    "Longitude": 132.4438,
    "Latitude": -23.282
  },
  {
    "Pcode": 872,
    "Locality": "MURPUTJA",
    "State": "SA",
    "Comments": "",
    "Category": "Delivery Area",
    "Longitude": 130.1818,
    "Latitude": -26.1633
  },
  {
    "Pcode": 872,
    "Locality": "MUTITJULU",
    "State": "NT",
    "Comments": "",
    "Category": "Delivery Area",
    "Longitude": 131.0673,
    "Latitude": -25.3506
  },
  {
    "Pcode": 872,
    "Locality": "NAMATJIRA",
    "State": "NT",
    "Comments": "",
    "Category": "Delivery Area",
    "Longitude": 132.7305,
    "Latitude": -23.9926
  },
  {
    "Pcode": 872,
    "Locality": "NAPPERBY STATION",
    "State": "NT",
    "Comments": "CARE PO",
    "Category": "Delivery Area",
    "Longitude": null,
    "Latitude": null
  },
  {
    "Pcode": 872,
    "Locality": "NGAANYATJARRA-GILES",
    "State": "WA",
    "Comments": "WA LOCALITY- VIA ALICE SPRINGS",
    "Category": "Delivery Area",
    "Longitude": 127.9193,
    "Latitude": -25.0943
  },
  {
    "Pcode": 872,
    "Locality": "NYAPARI",
    "State": "SA",
    "Comments": "",
    "Category": "Delivery Area",
    "Longitude": 130.2061,
    "Latitude": -26.1828
  },
  {
    "Pcode": 872,
    "Locality": "NYIRRIPI",
    "State": "NT",
    "Comments": "",
    "Category": "Delivery Area",
    "Longitude": 130.5657,
    "Latitude": -22.6469
  },
  {
    "Pcode": 872,
    "Locality": "PAPUNYA",
    "State": "NT",
    "Comments": "",
    "Category": "Delivery Area",
    "Longitude": 131.9123,
    "Latitude": -23.2027
  },
  {
    "Pcode": 872,
    "Locality": "PATJARR",
    "State": "WA",
    "Comments": "",
    "Category": "Delivery Area",
    "Longitude": null,
    "Latitude": null
  },
  {
    "Pcode": 872,
    "Locality": "PETERMANN",
    "State": "NT",
    "Comments": "",
    "Category": "Delivery Area",
    "Longitude": 130.7221,
    "Latitude": -25.0669
  },
  {
    "Pcode": 872,
    "Locality": "PIPALYATJARA",
    "State": "SA",
    "Comments": "",
    "Category": "Delivery Area",
    "Longitude": 129.1435,
    "Latitude": -26.1745
  },
  {
    "Pcode": 872,
    "Locality": "PUKATJA",
    "State": "SA",
    "Comments": "",
    "Category": "Delivery Area",
    "Longitude": 132.1433,
    "Latitude": -26.2882
  },
  {
    "Pcode": 872,
    "Locality": "SANDOVER",
    "State": "NT",
    "Comments": "",
    "Category": "Delivery Area",
    "Longitude": 135.5299,
    "Latitude": -21.9824
  },
  {
    "Pcode": 872,
    "Locality": "SANTA TERESA",
    "State": "NT",
    "Comments": "",
    "Category": "Delivery Area",
    "Longitude": 134.4536,
    "Latitude": -23.9972
  },
  {
    "Pcode": 872,
    "Locality": "SIMPSON",
    "State": "NT",
    "Comments": "",
    "Category": "Delivery Area",
    "Longitude": 136.7003,
    "Latitude": -24.9424
  },
  {
    "Pcode": 872,
    "Locality": "TANAMI",
    "State": "NT",
    "Comments": "",
    "Category": "Delivery Area",
    "Longitude": 130.5127,
    "Latitude": -19.8408
  },
  {
    "Pcode": 872,
    "Locality": "TARA",
    "State": "NT",
    "Comments": "",
    "Category": "Delivery Area",
    "Longitude": 133.9988,
    "Latitude": -21.4859
  },
  {
    "Pcode": 872,
    "Locality": "TELEGRAPH STATION",
    "State": "NT",
    "Comments": "",
    "Category": "Delivery Area",
    "Longitude": null,
    "Latitude": null
  },
  {
    "Pcode": 872,
    "Locality": "TI TREE",
    "State": "NT",
    "Comments": "",
    "Category": "Delivery Area",
    "Longitude": 133.4139,
    "Latitude": -22.1338
  },
  {
    "Pcode": 872,
    "Locality": "TIEYON",
    "State": "SA",
    "Comments": "",
    "Category": "Delivery Area",
    "Longitude": 133.8671,
    "Latitude": -26.3585
  },
  {
    "Pcode": 872,
    "Locality": "TITJIKALA",
    "State": "NT",
    "Comments": "",
    "Category": "Delivery Area",
    "Longitude": 134.075,
    "Latitude": -24.6789
  },
  {
    "Pcode": 872,
    "Locality": "TJIRRKARLI",
    "State": "WA",
    "Comments": "",
    "Category": "Delivery Area",
    "Longitude": null,
    "Latitude": null
  },
  {
    "Pcode": 872,
    "Locality": "TJUKURLA",
    "State": "WA",
    "Comments": "",
    "Category": "Delivery Area",
    "Longitude": null,
    "Latitude": null
  },
  {
    "Pcode": 872,
    "Locality": "UMUWA",
    "State": "SA",
    "Comments": "",
    "Category": "Delivery Area",
    "Longitude": 132.0255,
    "Latitude": -26.4789
  },
  {
    "Pcode": 872,
    "Locality": "WALLACE ROCKHOLE",
    "State": "NT",
    "Comments": "",
    "Category": "Delivery Area",
    "Longitude": 133.0922,
    "Latitude": -24.1228
  },
  {
    "Pcode": 872,
    "Locality": "WANARN",
    "State": "WA",
    "Comments": "WANARN COMMUNITY",
    "Category": "Delivery Area",
    "Longitude": null,
    "Latitude": null
  },
  {
    "Pcode": 872,
    "Locality": "WATARRU",
    "State": "SA",
    "Comments": "",
    "Category": "Delivery Area",
    "Longitude": 129.9038,
    "Latitude": -27.0257
  },
  {
    "Pcode": 872,
    "Locality": "WATINUMA",
    "State": "SA",
    "Comments": "",
    "Category": "Delivery Area",
    "Longitude": null,
    "Latitude": null
  },
  {
    "Pcode": 872,
    "Locality": "WILLOWRA",
    "State": "NT",
    "Comments": "",
    "Category": "Delivery Area",
    "Longitude": 132.6207,
    "Latitude": -21.2642
  },
  {
    "Pcode": 872,
    "Locality": "WILORA",
    "State": "NT",
    "Comments": "",
    "Category": "Delivery Area",
    "Longitude": 133.7266,
    "Latitude": -21.7443
  },
  {
    "Pcode": 872,
    "Locality": "WINGELLINA",
    "State": "WA",
    "Comments": "CARE PO",
    "Category": "Delivery Area",
    "Longitude": null,
    "Latitude": null
  },
  {
    "Pcode": 872,
    "Locality": "WUTUNUGURRA",
    "State": "NT",
    "Comments": "",
    "Category": "Delivery Area",
    "Longitude": 135.2504,
    "Latitude": -20.4623
  },
  {
    "Pcode": 872,
    "Locality": "YUELAMU",
    "State": "NT",
    "Comments": "",
    "Category": "Delivery Area",
    "Longitude": 132.2035,
    "Latitude": -22.2653
  },
  {
    "Pcode": 872,
    "Locality": "YUENDUMU",
    "State": "NT",
    "Comments": "",
    "Category": "Delivery Area",
    "Longitude": 131.7908,
    "Latitude": -22.2587
  },
  {
    "Pcode": 872,
    "Locality": "YULARA",
    "State": "NT",
    "Comments": "",
    "Category": "Delivery Area",
    "Longitude": 130.97,
    "Latitude": -25.2069
  },
  {
    "Pcode": 872,
    "Locality": "YUNYARINYI",
    "State": "SA",
    "Comments": "",
    "Category": "Delivery Area",
    "Longitude": 132.4512,
    "Latitude": -26.321
  },
  {
    "Pcode": 873,
    "Locality": "AMOONGUNA",
    "State": "NT",
    "Comments": "",
    "Category": "Delivery Area",
    "Longitude": 133.9302,
    "Latitude": -23.7683
  },
  {
    "Pcode": 873,
    "Locality": "ARUMBERA",
    "State": "NT",
    "Comments": "",
    "Category": "Delivery Area",
    "Longitude": 133.8088,
    "Latitude": -23.78
  },
  {
    "Pcode": 873,
    "Locality": "CONNELLAN",
    "State": "NT",
    "Comments": "",
    "Category": "Delivery Area",
    "Longitude": 133.9061,
    "Latitude": -23.7951
  },
  {
    "Pcode": 873,
    "Locality": "HEAVITREE GAP CPA",
    "State": "NT",
    "Comments": "PO BOXES",
    "Category": "Delivery Area",
    "Longitude": null,
    "Latitude": null
  },
  {
    "Pcode": 873,
    "Locality": "ILPARPA",
    "State": "NT",
    "Comments": "",
    "Category": "Delivery Area",
    "Longitude": 133.8277,
    "Latitude": -23.7449
  },
  {
    "Pcode": 873,
    "Locality": "KILGARIFF",
    "State": "NT",
    "Comments": "",
    "Category": "Delivery Area",
    "Longitude": 133.8817,
    "Latitude": -23.7726
  },
  {
    "Pcode": 873,
    "Locality": "ROSS",
    "State": "NT",
    "Comments": "",
    "Category": "Delivery Area",
    "Longitude": 133.9082,
    "Latitude": -23.7462
  },
  {
    "Pcode": 874,
    "Locality": "IRLPME",
    "State": "NT",
    "Comments": "",
    "Category": "Delivery Area",
    "Longitude": 133.8652,
    "Latitude": -23.6476
  },
  {
    "Pcode": 874,
    "Locality": "MOUNT JOHNS",
    "State": "NT",
    "Comments": "",
    "Category": "Delivery Area",
    "Longitude": 133.9056,
    "Latitude": -23.723
  },
  {
    "Pcode": 874,
    "Locality": "UNDOOLYA",
    "State": "NT",
    "Comments": "",
    "Category": "Delivery Area",
    "Longitude": 133.9187,
    "Latitude": -23.6871
  },
  {
    "Pcode": 875,
    "Locality": "FLYNN",
    "State": "NT",
    "Comments": "",
    "Category": "Delivery Area",
    "Longitude": 133.833,
    "Latitude": -23.7119
  },
  {
    "Pcode": 875,
    "Locality": "LARAPINTA",
    "State": "NT",
    "Comments": "",
    "Category": "Delivery Area",
    "Longitude": 133.8325,
    "Latitude": -23.6817
  },
  {
    "Pcode": 880,
    "Locality": "GAPUWIYAK",
    "State": "NT",
    "Comments": "",
    "Category": "Delivery Area",
    "Longitude": 135.7962,
    "Latitude": -12.5034
  },
  {
    "Pcode": 880,
    "Locality": "GUNYANGARA",
    "State": "NT",
    "Comments": "",
    "Category": "Delivery Area",
    "Longitude": 136.7041,
    "Latitude": -12.2235
  },
  {
    "Pcode": 880,
    "Locality": "NHULUNBUY",
    "State": "NT",
    "Comments": "",
    "Category": "Delivery Area",
    "Longitude": 136.7632,
    "Latitude": -12.2038
  },
  {
    "Pcode": 880,
    "Locality": "YIRRKALA",
    "State": "NT",
    "Comments": "",
    "Category": "Delivery Area",
    "Longitude": 136.8773,
    "Latitude": -12.2461
  },
  {
    "Pcode": 881,
    "Locality": "NHULUNBUY",
    "State": "NT",
    "Comments": "PO BOXES",
    "Category": "Post Office Boxes",
    "Longitude": null,
    "Latitude": null
  },
  {
    "Pcode": 885,
    "Locality": "ALYANGULA",
    "State": "NT",
    "Comments": "",
    "Category": "Delivery Area",
    "Longitude": 136.4207,
    "Latitude": -13.8522
  },
  {
    "Pcode": 886,
    "Locality": "JABIRU",
    "State": "NT",
    "Comments": "",
    "Category": "Delivery Area",
    "Longitude": 132.8372,
    "Latitude": -12.6699
  },
  {
    "Pcode": 906,
    "Locality": "WINNELLIE",
    "State": "NT",
    "Comments": "DK MARKETING",
    "Category": "LVR",
    "Longitude": null,
    "Latitude": null
  },
  {
    "Pcode": 907,
    "Locality": "WINNELLIE",
    "State": "NT",
    "Comments": "GP NETWORKS",
    "Category": "LVR",
    "Longitude": null,
    "Latitude": null
  },
  {
    "Pcode": 909,
    "Locality": "CHARLES DARWIN UNIVERSITY",
    "State": "NT",
    "Comments": "",
    "Category": "LVR",
    "Longitude": null,
    "Latitude": null
  },
  {
    "Pcode": 1021,
    "Locality": "SYDNEY",
    "State": "NSW",
    "Comments": "NATIONAL GEOGRAPHIC MAGAZINE",
    "Category": "LVR",
    "Longitude": null,
    "Latitude": null
  },
  {
    "Pcode": 1022,
    "Locality": "SYDNEY",
    "State": "NSW",
    "Comments": "TIME MAGAZINE",
    "Category": "LVR",
    "Longitude": null,
    "Latitude": null
  },
  {
    "Pcode": 1100,
    "Locality": "SYDNEY",
    "State": "NSW",
    "Comments": "TELSTRA",
    "Category": "LVR",
    "Longitude": null,
    "Latitude": null
  },
  {
    "Pcode": 1215,
    "Locality": "AUSTRALIA SQUARE",
    "State": "NSW",
    "Comments": "",
    "Category": "Post Office Boxes",
    "Longitude": null,
    "Latitude": null
  },
  {
    "Pcode": 1220,
    "Locality": "GROSVENOR PLACE",
    "State": "NSW",
    "Comments": "",
    "Category": "Post Office Boxes",
    "Longitude": null,
    "Latitude": null
  },
  {
    "Pcode": 1225,
    "Locality": "ROYAL EXCHANGE",
    "State": "NSW",
    "Comments": "",
    "Category": "Post Office Boxes",
    "Longitude": null,
    "Latitude": null
  },
  {
    "Pcode": 1230,
    "Locality": "QUEEN VICTORIA BUILDING",
    "State": "NSW",
    "Comments": "",
    "Category": "Post Office Boxes",
    "Longitude": null,
    "Latitude": null
  },
  {
    "Pcode": 1231,
    "Locality": "SYDNEY SOUTH",
    "State": "NSW",
    "Comments": "SYDNEY WATER",
    "Category": "LVR",
    "Longitude": null,
    "Latitude": null
  },
  {
    "Pcode": 1235,
    "Locality": "SYDNEY SOUTH",
    "State": "NSW",
    "Comments": "PO BOXES",
    "Category": "Post Office Boxes",
    "Longitude": null,
    "Latitude": null
  },
  {
    "Pcode": 1239,
    "Locality": "HAYMARKET",
    "State": "NSW",
    "Comments": "BRP",
    "Category": "LVR",
    "Longitude": null,
    "Latitude": null
  },
  {
    "Pcode": 1240,
    "Locality": "HAYMARKET",
    "State": "NSW",
    "Comments": "PO BOXES",
    "Category": "Post Office Boxes",
    "Longitude": null,
    "Latitude": null
  },
  {
    "Pcode": 1291,
    "Locality": "SYDNEY",
    "State": "NSW",
    "Comments": "ENERGY AUSTRALIA",
    "Category": "LVR",
    "Longitude": null,
    "Latitude": null
  },
  {
    "Pcode": 1300,
    "Locality": "DARLINGHURST",
    "State": "NSW",
    "Comments": "PO BOXES",
    "Category": "Post Office Boxes",
    "Longitude": null,
    "Latitude": null
  },
  {
    "Pcode": 1335,
    "Locality": "POTTS POINT",
    "State": "NSW",
    "Comments": "PO BOXES",
    "Category": "Post Office Boxes",
    "Longitude": null,
    "Latitude": null
  },
  {
    "Pcode": 1340,
    "Locality": "KINGS CROSS",
    "State": "NSW",
    "Comments": "PO BOXES",
    "Category": "Post Office Boxes",
    "Longitude": null,
    "Latitude": null
  },
  {
    "Pcode": 1350,
    "Locality": "WOOLLAHRA",
    "State": "NSW",
    "Comments": "PO BOXES",
    "Category": "Post Office Boxes",
    "Longitude": null,
    "Latitude": null
  },
  {
    "Pcode": 1355,
    "Locality": "BONDI JUNCTION",
    "State": "NSW",
    "Comments": "PO BOXES",
    "Category": "Post Office Boxes",
    "Longitude": null,
    "Latitude": null
  },
  {
    "Pcode": 1360,
    "Locality": "DOUBLE BAY",
    "State": "NSW",
    "Comments": "PO BOXES",
    "Category": "Post Office Boxes",
    "Longitude": null,
    "Latitude": null
  },
  {
    "Pcode": 1405,
    "Locality": "CHULLORA",
    "State": "NSW",
    "Comments": "PARCEL CENTRE RTS USE ONLY",
    "Category": "Post Office Boxes",
    "Longitude": null,
    "Latitude": null
  },
  {
    "Pcode": 1435,
    "Locality": "ALEXANDRIA",
    "State": "NSW",
    "Comments": "PO BOXES",
    "Category": "Post Office Boxes",
    "Longitude": null,
    "Latitude": null
  },
  {
    "Pcode": 1445,
    "Locality": "ROSEBERY",
    "State": "NSW",
    "Comments": "PO BOXES",
    "Category": "Post Office Boxes",
    "Longitude": null,
    "Latitude": null
  },
  {
    "Pcode": 1450,
    "Locality": "CAMPERDOWN",
    "State": "NSW",
    "Comments": "PO BOXES",
    "Category": "Post Office Boxes",
    "Longitude": null,
    "Latitude": null
  },
  {
    "Pcode": 1455,
    "Locality": "BOTANY",
    "State": "NSW",
    "Comments": "PO BOXES",
    "Category": "Post Office Boxes",
    "Longitude": null,
    "Latitude": null
  },
  {
    "Pcode": 1460,
    "Locality": "MASCOT",
    "State": "NSW",
    "Comments": "PO BOXES",
    "Category": "Post Office Boxes",
    "Longitude": null,
    "Latitude": null
  },
  {
    "Pcode": 1465,
    "Locality": "KENSINGTON",
    "State": "NSW",
    "Comments": "PO BOXES",
    "Category": "Post Office Boxes",
    "Longitude": null,
    "Latitude": null
  },
  {
    "Pcode": 1466,
    "Locality": "UNSW SYDNEY",
    "State": "NSW",
    "Comments": "PO BOXES",
    "Category": "Post Office Boxes",
    "Longitude": null,
    "Latitude": null
  },
  {
    "Pcode": 1470,
    "Locality": "DRUMMOYNE",
    "State": "NSW",
    "Comments": "PO BOXES",
    "Category": "Post Office Boxes",
    "Longitude": null,
    "Latitude": null
  },
  {
    "Pcode": 1475,
    "Locality": "MARRICKVILLE",
    "State": "NSW",
    "Comments": "PO BOXES",
    "Category": "Post Office Boxes",
    "Longitude": null,
    "Latitude": null
  },
  {
    "Pcode": 1480,
    "Locality": "KINGSGROVE",
    "State": "NSW",
    "Comments": "PO BOXES",
    "Category": "Post Office Boxes",
    "Longitude": null,
    "Latitude": null
  },
  {
    "Pcode": 1481,
    "Locality": "HURSTVILLE BC",
    "State": "NSW",
    "Comments": "PO BOXES",
    "Category": "Post Office Boxes",
    "Longitude": null,
    "Latitude": null
  },
  {
    "Pcode": 1485,
    "Locality": "KOGARAH",
    "State": "NSW",
    "Comments": "PO BOXES",
    "Category": "Post Office Boxes",
    "Longitude": null,
    "Latitude": null
  },
  {
    "Pcode": 1490,
    "Locality": "MIRANDA",
    "State": "NSW",
    "Comments": "PO BOXES",
    "Category": "Post Office Boxes",
    "Longitude": null,
    "Latitude": null
  },
  {
    "Pcode": 1495,
    "Locality": "CARINGBAH",
    "State": "NSW",
    "Comments": "PO BOXES",
    "Category": "Post Office Boxes",
    "Longitude": null,
    "Latitude": null
  },
  {
    "Pcode": 1499,
    "Locality": "SUTHERLAND",
    "State": "NSW",
    "Comments": "PO BOXES",
    "Category": "Post Office Boxes",
    "Longitude": null,
    "Latitude": null
  },
  {
    "Pcode": 1515,
    "Locality": "WEST CHATSWOOD",
    "State": "NSW",
    "Comments": "PO BOXES",
    "Category": "Post Office Boxes",
    "Longitude": null,
    "Latitude": null
  },
  {
    "Pcode": 1560,
    "Locality": "NORTHBRIDGE",
    "State": "NSW",
    "Comments": "PO BOXES",
    "Category": "Post Office Boxes",
    "Longitude": null,
    "Latitude": null
  },
  {
    "Pcode": 1565,
    "Locality": "MILSONS POINT",
    "State": "NSW",
    "Comments": "PO BOXES",
    "Category": "Post Office Boxes",
    "Longitude": null,
    "Latitude": null
  },
  {
    "Pcode": 1570,
    "Locality": "ARTARMON",
    "State": "NSW",
    "Comments": "PO BOXES",
    "Category": "Post Office Boxes",
    "Longitude": null,
    "Latitude": null
  },
  {
    "Pcode": 1585,
    "Locality": "CROWS NEST",
    "State": "NSW",
    "Comments": "PO BOXES",
    "Category": "Post Office Boxes",
    "Longitude": null,
    "Latitude": null
  },
  {
    "Pcode": 1590,
    "Locality": "ST LEONARDS",
    "State": "NSW",
    "Comments": "PO BOXES",
    "Category": "Post Office Boxes",
    "Longitude": null,
    "Latitude": null
  },
  {
    "Pcode": 1595,
    "Locality": "LANE COVE",
    "State": "NSW",
    "Comments": "PO BOXES",
    "Category": "Post Office Boxes",
    "Longitude": null,
    "Latitude": null
  },
  {
    "Pcode": 1602,
    "Locality": "LANE COVE DC",
    "State": "NSW",
    "Comments": "DOUBLEDAY",
    "Category": "LVR",
    "Longitude": null,
    "Latitude": null
  },
  {
    "Pcode": 1630,
    "Locality": "HORNSBY",
    "State": "NSW",
    "Comments": "PO BOXES",
    "Category": "Post Office Boxes",
    "Longitude": null,
    "Latitude": null
  },
  {
    "Pcode": 1635,
    "Locality": "HORNSBY WESTFIELD",
    "State": "NSW",
    "Comments": "PO BOXES",
    "Category": "Post Office Boxes",
    "Longitude": null,
    "Latitude": null
  },
  {
    "Pcode": 1640,
    "Locality": "FRENCHS FOREST",
    "State": "NSW",
    "Comments": "PO BOXES",
    "Category": "Post Office Boxes",
    "Longitude": null,
    "Latitude": null
  },
  {
    "Pcode": 1655,
    "Locality": "MANLY",
    "State": "NSW",
    "Comments": "PO BOXES",
    "Category": "Post Office Boxes",
    "Longitude": null,
    "Latitude": null
  },
  {
    "Pcode": 1660,
    "Locality": "MONA VALE",
    "State": "NSW",
    "Comments": "PO BOXES",
    "Category": "Post Office Boxes",
    "Longitude": null,
    "Latitude": null
  },
  {
    "Pcode": 1670,
    "Locality": "NORTH RYDE",
    "State": "NSW",
    "Comments": "PO BOXES",
    "Category": "Post Office Boxes",
    "Longitude": null,
    "Latitude": null
  },
  {
    "Pcode": 1670,
    "Locality": "NORTH RYDE BC",
    "State": "NSW",
    "Comments": "PO BOXES",
    "Category": "Post Office Boxes",
    "Longitude": null,
    "Latitude": null
  },
  {
    "Pcode": 1675,
    "Locality": "GLADESVILLE",
    "State": "NSW",
    "Comments": "PO BOXES",
    "Category": "Post Office Boxes",
    "Longitude": null,
    "Latitude": null
  },
  {
    "Pcode": 1680,
    "Locality": "RYDE",
    "State": "NSW",
    "Comments": "PO BOXES",
    "Category": "Post Office Boxes",
    "Longitude": null,
    "Latitude": null
  },
  {
    "Pcode": 1685,
    "Locality": "WEST RYDE",
    "State": "NSW",
    "Comments": "PO BOXES",
    "Category": "Post Office Boxes",
    "Longitude": null,
    "Latitude": null
  },
  {
    "Pcode": 1700,
    "Locality": "ERMINGTON",
    "State": "NSW",
    "Comments": "PO BOXES",
    "Category": "Post Office Boxes",
    "Longitude": null,
    "Latitude": null
  },
  {
    "Pcode": 1710,
    "Locality": "EPPING",
    "State": "NSW",
    "Comments": "PO BOXES",
    "Category": "Post Office Boxes",
    "Longitude": null,
    "Latitude": null
  },
  {
    "Pcode": 1715,
    "Locality": "PENNANT HILLS",
    "State": "NSW",
    "Comments": "PO BOXES",
    "Category": "Post Office Boxes",
    "Longitude": null,
    "Latitude": null
  },
  {
    "Pcode": 1730,
    "Locality": "SEVEN HILLS",
    "State": "NSW",
    "Comments": "PO BOXES",
    "Category": "Post Office Boxes",
    "Longitude": null,
    "Latitude": null
  },
  {
    "Pcode": 1750,
    "Locality": "NORTH PARRAMATTA",
    "State": "NSW",
    "Comments": "PO BOXES",
    "Category": "Post Office Boxes",
    "Longitude": null,
    "Latitude": null
  },
  {
    "Pcode": 1755,
    "Locality": "BAULKHAM HILLS",
    "State": "NSW",
    "Comments": "PO BOXES",
    "Category": "Post Office Boxes",
    "Longitude": null,
    "Latitude": null
  },
  {
    "Pcode": 1765,
    "Locality": "CASTLE HILL",
    "State": "NSW",
    "Comments": "PO BOXES",
    "Category": "Post Office Boxes",
    "Longitude": null,
    "Latitude": null
  },
  {
    "Pcode": 1781,
    "Locality": "SEVEN HILLS MC",
    "State": "NSW",
    "Comments": "ACN AUSTRALIA",
    "Category": "LVR",
    "Longitude": null,
    "Latitude": null
  },
  {
    "Pcode": 1790,
    "Locality": "ST MARYS",
    "State": "NSW",
    "Comments": "PO BOXES",
    "Category": "Post Office Boxes",
    "Longitude": null,
    "Latitude": null
  },
  {
    "Pcode": 1800,
    "Locality": "ASHFIELD",
    "State": "NSW",
    "Comments": "PO BOXES",
    "Category": "Post Office Boxes",
    "Longitude": null,
    "Latitude": null
  },
  {
    "Pcode": 1805,
    "Locality": "BURWOOD",
    "State": "NSW",
    "Comments": "PO BOXES",
    "Category": "Post Office Boxes",
    "Longitude": null,
    "Latitude": null
  },
  {
    "Pcode": 1811,
    "Locality": "SILVERWATER",
    "State": "NSW",
    "Comments": "PO BOXES",
    "Category": "Post Office Boxes",
    "Longitude": null,
    "Latitude": null
  },
  {
    "Pcode": 1825,
    "Locality": "LIDCOMBE",
    "State": "NSW",
    "Comments": "PO BOXES",
    "Category": "Post Office Boxes",
    "Longitude": null,
    "Latitude": null
  },
  {
    "Pcode": 1835,
    "Locality": "AUBURN",
    "State": "NSW",
    "Comments": "PO BOXES",
    "Category": "Post Office Boxes",
    "Longitude": null,
    "Latitude": null
  },
  {
    "Pcode": 1851,
    "Locality": "WETHERILL PARK DC",
    "State": "NSW",
    "Comments": "PO BOXES",
    "Category": "Post Office Boxes",
    "Longitude": null,
    "Latitude": null
  },
  {
    "Pcode": 1860,
    "Locality": "FAIRFIELD",
    "State": "NSW",
    "Comments": "PO BOXES",
    "Category": "Post Office Boxes",
    "Longitude": null,
    "Latitude": null
  },
  {
    "Pcode": 1871,
    "Locality": "LIVERPOOL",
    "State": "NSW",
    "Comments": "PO BOXES",
    "Category": "Post Office Boxes",
    "Longitude": null,
    "Latitude": null
  },
  {
    "Pcode": 1874,
    "Locality": "MOOREBANK",
    "State": "NSW",
    "Comments": "",
    "Category": "LVR",
    "Longitude": null,
    "Latitude": null
  },
  {
    "Pcode": 1875,
    "Locality": "MOOREBANK",
    "State": "NSW",
    "Comments": "PO BOXES",
    "Category": "Post Office Boxes",
    "Longitude": null,
    "Latitude": null
  },
  {
    "Pcode": 1885,
    "Locality": "BANKSTOWN",
    "State": "NSW",
    "Comments": "PO BOXES",
    "Category": "Post Office Boxes",
    "Longitude": null,
    "Latitude": null
  },
  {
    "Pcode": 1890,
    "Locality": "INGLEBURN",
    "State": "NSW",
    "Comments": "PO BOXES",
    "Category": "Post Office Boxes",
    "Longitude": null,
    "Latitude": null
  },
  {
    "Pcode": 1891,
    "Locality": "MILPERRA",
    "State": "NSW",
    "Comments": "",
    "Category": "Post Office Boxes",
    "Longitude": null,
    "Latitude": null
  },
  {
    "Pcode": 2000,
    "Locality": "BARANGAROO",
    "State": "NSW",
    "Comments": "",
    "Category": "Delivery Area",
    "Longitude": 151.2015,
    "Latitude": -33.8614
  },
  {
    "Pcode": 2000,
    "Locality": "DAWES POINT",
    "State": "NSW",
    "Comments": "",
    "Category": "Delivery Area",
    "Longitude": 151.2069,
    "Latitude": -33.8565
  },
  {
    "Pcode": 2000,
    "Locality": "HAYMARKET",
    "State": "NSW",
    "Comments": "",
    "Category": "Delivery Area",
    "Longitude": 151.2045,
    "Latitude": -33.8814
  },
  {
    "Pcode": 2000,
    "Locality": "MILLERS POINT",
    "State": "NSW",
    "Comments": "",
    "Category": "Delivery Area",
    "Longitude": 151.2042,
    "Latitude": -33.8598
  },
  {
    "Pcode": 2000,
    "Locality": "PARLIAMENT HOUSE",
    "State": "NSW",
    "Comments": "SYDNEY",
    "Category": "Delivery Area",
    "Longitude": null,
    "Latitude": null
  },
  {
    "Pcode": 2000,
    "Locality": "SYDNEY",
    "State": "NSW",
    "Comments": "",
    "Category": "Delivery Area",
    "Longitude": 151.2099,
    "Latitude": -33.8697
  },
  {
    "Pcode": 2000,
    "Locality": "SYDNEY SOUTH",
    "State": "NSW",
    "Comments": "",
    "Category": "Delivery Area",
    "Longitude": null,
    "Latitude": null
  },
  {
    "Pcode": 2000,
    "Locality": "THE ROCKS",
    "State": "NSW",
    "Comments": "SYDNEY",
    "Category": "Delivery Area",
    "Longitude": 151.208,
    "Latitude": -33.8592
  },
  {
    "Pcode": 2001,
    "Locality": "SYDNEY",
    "State": "NSW",
    "Comments": "GPO BOXES",
    "Category": "Post Office Boxes",
    "Longitude": null,
    "Latitude": null
  },
  {
    "Pcode": 2002,
    "Locality": "WORLD SQUARE",
    "State": "NSW",
    "Comments": "PO BOXES",
    "Category": "Post Office Boxes",
    "Longitude": null,
    "Latitude": null
  },
  {
    "Pcode": 2004,
    "Locality": "ALEXANDRIA MC",
    "State": "NSW",
    "Comments": "PO BOXES",
    "Category": "Post Office Boxes",
    "Longitude": null,
    "Latitude": null
  },
  {
    "Pcode": 2004,
    "Locality": "EASTERN SUBURBS MC",
    "State": "NSW",
    "Comments": "",
    "Category": "Post Office Boxes",
    "Longitude": null,
    "Latitude": null
  },
  {
    "Pcode": 2006,
    "Locality": "THE UNIVERSITY OF SYDNEY",
    "State": "NSW",
    "Comments": "PO BOXES",
    "Category": "Post Office Boxes",
    "Longitude": null,
    "Latitude": null
  },
  {
    "Pcode": 2007,
    "Locality": "BROADWAY",
    "State": "NSW",
    "Comments": "PO BOXES",
    "Category": "Delivery Area",
    "Longitude": null,
    "Latitude": null
  },
  {
    "Pcode": 2007,
    "Locality": "ULTIMO",
    "State": "NSW",
    "Comments": "",
    "Category": "Delivery Area",
    "Longitude": 151.1984,
    "Latitude": -33.8799
  },
  {
    "Pcode": 2008,
    "Locality": "CHIPPENDALE",
    "State": "NSW",
    "Comments": "",
    "Category": "Delivery Area",
    "Longitude": 151.2,
    "Latitude": -33.8862
  },
  {
    "Pcode": 2008,
    "Locality": "DARLINGTON",
    "State": "NSW",
    "Comments": "CHIPPENDALE",
    "Category": "Delivery Area",
    "Longitude": 151.1927,
    "Latitude": -33.8908
  },
  {
    "Pcode": 2009,
    "Locality": "PYRMONT",
    "State": "NSW",
    "Comments": "",
    "Category": "Delivery Area",
    "Longitude": 151.1926,
    "Latitude": -33.8686
  },
  {
    "Pcode": 2010,
    "Locality": "DARLINGHURST",
    "State": "NSW",
    "Comments": "",
    "Category": "Delivery Area",
    "Longitude": 151.2189,
    "Latitude": -33.8794
  },
  {
    "Pcode": 2010,
    "Locality": "SURRY HILLS",
    "State": "NSW",
    "Comments": "",
    "Category": "Delivery Area",
    "Longitude": 151.21,
    "Latitude": -33.8849
  },
  {
    "Pcode": 2011,
    "Locality": "ELIZABETH BAY",
    "State": "NSW",
    "Comments": "",
    "Category": "Delivery Area",
    "Longitude": 151.2283,
    "Latitude": -33.8716
  },
  {
    "Pcode": 2011,
    "Locality": "POTTS POINT",
    "State": "NSW",
    "Comments": "",
    "Category": "Delivery Area",
    "Longitude": 151.226,
    "Latitude": -33.8655
  },
  {
    "Pcode": 2011,
    "Locality": "RUSHCUTTERS BAY",
    "State": "NSW",
    "Comments": "",
    "Category": "Delivery Area",
    "Longitude": 151.2286,
    "Latitude": -33.8745
  },
  {
    "Pcode": 2011,
    "Locality": "WOOLLOOMOOLOO",
    "State": "NSW",
    "Comments": "",
    "Category": "Delivery Area",
    "Longitude": 151.2184,
    "Latitude": -33.8722
  },
  {
    "Pcode": 2012,
    "Locality": "STRAWBERRY HILLS",
    "State": "NSW",
    "Comments": "PO BOXES",
    "Category": "Post Office Boxes",
    "Longitude": null,
    "Latitude": null
  },
  {
    "Pcode": 2015,
    "Locality": "ALEXANDRIA",
    "State": "NSW",
    "Comments": "",
    "Category": "Delivery Area",
    "Longitude": 151.192,
    "Latitude": -33.9082
  },
  {
    "Pcode": 2015,
    "Locality": "BEACONSFIELD",
    "State": "NSW",
    "Comments": "",
    "Category": "Delivery Area",
    "Longitude": 151.2004,
    "Latitude": -33.9114
  },
  {
    "Pcode": 2015,
    "Locality": "EVELEIGH",
    "State": "NSW",
    "Comments": "",
    "Category": "Delivery Area",
    "Longitude": 151.1927,
    "Latitude": -33.8957
  },
  {
    "Pcode": 2016,
    "Locality": "REDFERN",
    "State": "NSW",
    "Comments": "",
    "Category": "Delivery Area",
    "Longitude": 151.2073,
    "Latitude": -33.8931
  },
  {
    "Pcode": 2017,
    "Locality": "WATERLOO",
    "State": "NSW",
    "Comments": "",
    "Category": "Delivery Area",
    "Longitude": 151.2079,
    "Latitude": -33.9003
  },
  {
    "Pcode": 2017,
    "Locality": "WATERLOO DC",
    "State": "NSW",
    "Comments": "",
    "Category": "Delivery Area",
    "Longitude": null,
    "Latitude": null
  },
  {
    "Pcode": 2017,
    "Locality": "ZETLAND",
    "State": "NSW",
    "Comments": "",
    "Category": "Delivery Area",
    "Longitude": 151.2081,
    "Latitude": -33.9076
  },
  {
    "Pcode": 2018,
    "Locality": "EASTLAKES",
    "State": "NSW",
    "Comments": "",
    "Category": "Delivery Area",
    "Longitude": 151.2126,
    "Latitude": -33.931
  },
  {
    "Pcode": 2018,
    "Locality": "ROSEBERY",
    "State": "NSW",
    "Comments": "",
    "Category": "Delivery Area",
    "Longitude": 151.2048,
    "Latitude": -33.9186
  },
  {
    "Pcode": 2019,
    "Locality": "BANKSMEADOW",
    "State": "NSW",
    "Comments": "",
    "Category": "Delivery Area",
    "Longitude": 151.2148,
    "Latitude": -33.9554
  },
  {
    "Pcode": 2019,
    "Locality": "BOTANY",
    "State": "NSW",
    "Comments": "",
    "Category": "Delivery Area",
    "Longitude": 151.1996,
    "Latitude": -33.949
  },
  {
    "Pcode": 2020,
    "Locality": "MASCOT",
    "State": "NSW",
    "Comments": "",
    "Category": "Delivery Area",
    "Longitude": 151.1837,
    "Latitude": -33.9357
  },
  {
    "Pcode": 2020,
    "Locality": "SYDNEY DOMESTIC AIRPORT",
    "State": "NSW",
    "Comments": "",
    "Category": "Delivery Area",
    "Longitude": null,
    "Latitude": null
  },
  {
    "Pcode": 2020,
    "Locality": "SYDNEY INTERNATIONAL AIRPORT",
    "State": "NSW",
    "Comments": "",
    "Category": "Delivery Area",
    "Longitude": null,
    "Latitude": null
  },
  {
    "Pcode": 2021,
    "Locality": "CENTENNIAL PARK",
    "State": "NSW",
    "Comments": "",
    "Category": "Delivery Area",
    "Longitude": 151.2341,
    "Latitude": -33.8977
  },
  {
    "Pcode": 2021,
    "Locality": "MOORE PARK",
    "State": "NSW",
    "Comments": "",
    "Category": "Delivery Area",
    "Longitude": 151.2222,
    "Latitude": -33.8958
  },
  {
    "Pcode": 2021,
    "Locality": "PADDINGTON",
    "State": "NSW",
    "Comments": "",
    "Category": "Delivery Area",
    "Longitude": 151.228,
    "Latitude": -33.8833
  },
  {
    "Pcode": 2022,
    "Locality": "BONDI JUNCTION",
    "State": "NSW",
    "Comments": "",
    "Category": "Delivery Area",
    "Longitude": 151.2496,
    "Latitude": -33.8929
  },
  {
    "Pcode": 2022,
    "Locality": "QUEENS PARK",
    "State": "NSW",
    "Comments": "",
    "Category": "Delivery Area",
    "Longitude": 151.2473,
    "Latitude": -33.8993
  },
  {
    "Pcode": 2023,
    "Locality": "BELLEVUE HILL",
    "State": "NSW",
    "Comments": "",
    "Category": "Delivery Area",
    "Longitude": 151.2549,
    "Latitude": -33.8796
  },
  {
    "Pcode": 2024,
    "Locality": "BRONTE",
    "State": "NSW",
    "Comments": "",
    "Category": "Delivery Area",
    "Longitude": 151.2637,
    "Latitude": -33.9039
  },
  {
    "Pcode": 2024,
    "Locality": "WAVERLEY",
    "State": "NSW",
    "Comments": "",
    "Category": "Delivery Area",
    "Longitude": 151.2559,
    "Latitude": -33.9017
  },
  {
    "Pcode": 2025,
    "Locality": "WOOLLAHRA",
    "State": "NSW",
    "Comments": "",
    "Category": "Delivery Area",
    "Longitude": 151.2416,
    "Latitude": -33.8857
  },
  {
    "Pcode": 2026,
    "Locality": "BONDI",
    "State": "NSW",
    "Comments": "",
    "Category": "Delivery Area",
    "Longitude": 151.2634,
    "Latitude": -33.893
  },
  {
    "Pcode": 2026,
    "Locality": "BONDI BEACH",
    "State": "NSW",
    "Comments": "",
    "Category": "Delivery Area",
    "Longitude": 151.2738,
    "Latitude": -33.8909
  },
  {
    "Pcode": 2026,
    "Locality": "NORTH BONDI",
    "State": "NSW",
    "Comments": "",
    "Category": "Delivery Area",
    "Longitude": 151.2816,
    "Latitude": -33.8861
  },
  {
    "Pcode": 2026,
    "Locality": "TAMARAMA",
    "State": "NSW",
    "Comments": "",
    "Category": "Delivery Area",
    "Longitude": 151.2717,
    "Latitude": -33.8988
  },
  {
    "Pcode": 2027,
    "Locality": "DARLING POINT",
    "State": "NSW",
    "Comments": "",
    "Category": "Delivery Area",
    "Longitude": 151.2356,
    "Latitude": -33.8729
  },
  {
    "Pcode": 2027,
    "Locality": "EDGECLIFF",
    "State": "NSW",
    "Comments": "",
    "Category": "Delivery Area",
    "Longitude": 151.2379,
    "Latitude": -33.8796
  },
  {
    "Pcode": 2027,
    "Locality": "HMAS RUSHCUTTERS",
    "State": "NSW",
    "Comments": "",
    "Category": "Delivery Area",
    "Longitude": null,
    "Latitude": null
  },
  {
    "Pcode": 2027,
    "Locality": "POINT PIPER",
    "State": "NSW",
    "Comments": "",
    "Category": "Delivery Area",
    "Longitude": 151.2523,
    "Latitude": -33.8669
  },
  {
    "Pcode": 2028,
    "Locality": "DOUBLE BAY",
    "State": "NSW",
    "Comments": "",
    "Category": "Delivery Area",
    "Longitude": 151.2433,
    "Latitude": -33.879
  },
  {
    "Pcode": 2029,
    "Locality": "ROSE BAY",
    "State": "NSW",
    "Comments": "",
    "Category": "Delivery Area",
    "Longitude": 151.2666,
    "Latitude": -33.8741
  },
  {
    "Pcode": 2030,
    "Locality": "DOVER HEIGHTS",
    "State": "NSW",
    "Comments": "",
    "Category": "Delivery Area",
    "Longitude": 151.2809,
    "Latitude": -33.873
  },
  {
    "Pcode": 2030,
    "Locality": "HMAS WATSON",
    "State": "NSW",
    "Comments": "",
    "Category": "Delivery Area",
    "Longitude": null,
    "Latitude": null
  },
  {
    "Pcode": 2030,
    "Locality": "ROSE BAY NORTH",
    "State": "NSW",
    "Comments": "",
    "Category": "Delivery Area",
    "Longitude": null,
    "Latitude": null
  },
  {
    "Pcode": 2030,
    "Locality": "VAUCLUSE",
    "State": "NSW",
    "Comments": "",
    "Category": "Delivery Area",
    "Longitude": 151.2764,
    "Latitude": -33.8557
  },
  {
    "Pcode": 2030,
    "Locality": "WATSONS BAY",
    "State": "NSW",
    "Comments": "",
    "Category": "Delivery Area",
    "Longitude": 151.2817,
    "Latitude": -33.8403
  },
  {
    "Pcode": 2031,
    "Locality": "CLOVELLY",
    "State": "NSW",
    "Comments": "",
    "Category": "Delivery Area",
    "Longitude": 151.2631,
    "Latitude": -33.9116
  },
  {
    "Pcode": 2031,
    "Locality": "CLOVELLY WEST",
    "State": "NSW",
    "Comments": "",
    "Category": "Delivery Area",
    "Longitude": null,
    "Latitude": null
  },
  {
    "Pcode": 2031,
    "Locality": "RANDWICK",
    "State": "NSW",
    "Comments": "",
    "Category": "Delivery Area",
    "Longitude": 151.2401,
    "Latitude": -33.918
  },
  {
    "Pcode": 2031,
    "Locality": "RANDWICK DC",
    "State": "NSW",
    "Comments": "",
    "Category": "Delivery Area",
    "Longitude": null,
    "Latitude": null
  },
  {
    "Pcode": 2031,
    "Locality": "ST PAULS",
    "State": "NSW",
    "Comments": "",
    "Category": "Delivery Area",
    "Longitude": null,
    "Latitude": null
  },
  {
    "Pcode": 2032,
    "Locality": "DACEYVILLE",
    "State": "NSW",
    "Comments": "",
    "Category": "Delivery Area",
    "Longitude": 151.2252,
    "Latitude": -33.929
  },
  {
    "Pcode": 2032,
    "Locality": "KINGSFORD",
    "State": "NSW",
    "Comments": "",
    "Category": "Delivery Area",
    "Longitude": 151.2338,
    "Latitude": -33.9259
  },
  {
    "Pcode": 2033,
    "Locality": "KENSINGTON",
    "State": "NSW",
    "Comments": "",
    "Category": "Delivery Area",
    "Longitude": 151.2237,
    "Latitude": -33.9115
  },
  {
    "Pcode": 2034,
    "Locality": "COOGEE",
    "State": "NSW",
    "Comments": "",
    "Category": "Delivery Area",
    "Longitude": 151.2549,
    "Latitude": -33.9196
  },
  {
    "Pcode": 2034,
    "Locality": "SOUTH COOGEE",
    "State": "NSW",
    "Comments": "",
    "Category": "Delivery Area",
    "Longitude": 151.2556,
    "Latitude": -33.9322
  },
  {
    "Pcode": 2035,
    "Locality": "MAROUBRA",
    "State": "NSW",
    "Comments": "",
    "Category": "Delivery Area",
    "Longitude": 151.2441,
    "Latitude": -33.9454
  },
  {
    "Pcode": 2035,
    "Locality": "MAROUBRA SOUTH",
    "State": "NSW",
    "Comments": "",
    "Category": "Delivery Area",
    "Longitude": null,
    "Latitude": null
  },
  {
    "Pcode": 2035,
    "Locality": "PAGEWOOD",
    "State": "NSW",
    "Comments": "",
    "Category": "Delivery Area",
    "Longitude": 151.2236,
    "Latitude": -33.9368
  },
  {
    "Pcode": 2036,
    "Locality": "CHIFLEY",
    "State": "NSW",
    "Comments": "",
    "Category": "Delivery Area",
    "Longitude": 151.2397,
    "Latitude": -33.9694
  },
  {
    "Pcode": 2036,
    "Locality": "EASTGARDENS",
    "State": "NSW",
    "Comments": "",
    "Category": "Delivery Area",
    "Longitude": 151.2264,
    "Latitude": -33.9443
  },
  {
    "Pcode": 2036,
    "Locality": "HILLSDALE",
    "State": "NSW",
    "Comments": "",
    "Category": "Delivery Area",
    "Longitude": 151.2275,
    "Latitude": -33.9522
  },
  {
    "Pcode": 2036,
    "Locality": "LA PEROUSE",
    "State": "NSW",
    "Comments": "",
    "Category": "Delivery Area",
    "Longitude": 151.2435,
    "Latitude": -33.9913
  },
  {
    "Pcode": 2036,
    "Locality": "LITTLE BAY",
    "State": "NSW",
    "Comments": "",
    "Category": "Delivery Area",
    "Longitude": 151.2452,
    "Latitude": -33.9834
  },
  {
    "Pcode": 2036,
    "Locality": "MALABAR",
    "State": "NSW",
    "Comments": "",
    "Category": "Delivery Area",
    "Longitude": 151.254,
    "Latitude": -33.9581
  },
  {
    "Pcode": 2036,
    "Locality": "MATRAVILLE",
    "State": "NSW",
    "Comments": "",
    "Category": "Delivery Area",
    "Longitude": 151.2298,
    "Latitude": -33.964
  },
  {
    "Pcode": 2036,
    "Locality": "PHILLIP BAY",
    "State": "NSW",
    "Comments": "",
    "Category": "Delivery Area",
    "Longitude": 151.2329,
    "Latitude": -33.9794
  },
  {
    "Pcode": 2036,
    "Locality": "PORT BOTANY",
    "State": "NSW",
    "Comments": "",
    "Category": "Delivery Area",
    "Longitude": 151.2171,
    "Latitude": -33.975
  },
  {
    "Pcode": 2037,
    "Locality": "FOREST LODGE",
    "State": "NSW",
    "Comments": "",
    "Category": "Delivery Area",
    "Longitude": 151.1784,
    "Latitude": -33.8806
  },
  {
    "Pcode": 2037,
    "Locality": "GLEBE",
    "State": "NSW",
    "Comments": "",
    "Category": "Delivery Area",
    "Longitude": 151.1872,
    "Latitude": -33.8778
  },
  {
    "Pcode": 2038,
    "Locality": "ANNANDALE",
    "State": "NSW",
    "Comments": "",
    "Category": "Delivery Area",
    "Longitude": 151.1697,
    "Latitude": -33.8806
  },
  {
    "Pcode": 2039,
    "Locality": "ROZELLE",
    "State": "NSW",
    "Comments": "",
    "Category": "Delivery Area",
    "Longitude": 151.1733,
    "Latitude": -33.8645
  },
  {
    "Pcode": 2040,
    "Locality": "LEICHHARDT",
    "State": "NSW",
    "Comments": "",
    "Category": "Delivery Area",
    "Longitude": 151.1557,
    "Latitude": -33.8819
  },
  {
    "Pcode": 2040,
    "Locality": "LILYFIELD",
    "State": "NSW",
    "Comments": "",
    "Category": "Delivery Area",
    "Longitude": 151.1603,
    "Latitude": -33.871
  },
  {
    "Pcode": 2041,
    "Locality": "BALMAIN",
    "State": "NSW",
    "Comments": "",
    "Category": "Delivery Area",
    "Longitude": 151.1809,
    "Latitude": -33.8583
  },
  {
    "Pcode": 2041,
    "Locality": "BALMAIN EAST",
    "State": "NSW",
    "Comments": "",
    "Category": "Delivery Area",
    "Longitude": 151.1921,
    "Latitude": -33.8571
  },
  {
    "Pcode": 2041,
    "Locality": "BIRCHGROVE",
    "State": "NSW",
    "Comments": "",
    "Category": "Delivery Area",
    "Longitude": 151.1818,
    "Latitude": -33.8507
  },
  {
    "Pcode": 2042,
    "Locality": "ENMORE",
    "State": "NSW",
    "Comments": "",
    "Category": "Delivery Area",
    "Longitude": 151.17,
    "Latitude": -33.9001
  },
  {
    "Pcode": 2042,
    "Locality": "NEWTOWN",
    "State": "NSW",
    "Comments": "",
    "Category": "Delivery Area",
    "Longitude": 151.1802,
    "Latitude": -33.8976
  },